[
  {"name":"BAR MINO",
   "phone_number":"011-272-2004",
   "address":"札幌市中央区北1西3 古久根ビル　B1F",
   "beerName":["みのう","ミノウ","みのお","ミノオ","箕面"],
   "latitude":"43.069465",
   "longitude":"141.353903",
   "state":"北海道"},
{"name":"beer&food HIGURASHI","phone_number":"011-532-8480","address":"北海道札幌市中央区南5条西2丁目　社交会館3F","beerName":["みのう","ミノウ","みのお","ミノオ","箕面"],"latitude":"43.052517","longitude":"141.359829","state":"北海道"},
{"name":"THE ARCHIGRAM British Pub & Cafe","phone_number":"023-622-7570","address":"山形市十日町2-1-35","beerName":["みのう","ミノウ","みのお","ミノオ","箕面"],"latitude":"38.242921","longitude":"140.339676","state":"山形県"},
{"name":"かんも　-kammo-","phone_number":"03-3782-5690","address":"品川区中延5-9-10 村本ハイツ1号","beerName":["みのう","ミノウ","みのお","ミノオ","箕面"],"latitude":"35.599303","longitude":"139.71107","state":"東京都"},
{"name":"Goodbeer Faucets","phone_number":"03-3770-5544","address":"渋谷区松濤1-29-1","beerName":["みのう","ミノウ","みのお","ミノオ","箕面"],"latitude":"35.656848","longitude":"139.698448","state":"東京都"},
{"name":"Craft Beer & Whisky Bar Transit","phone_number":"03-6426-7788","address":"品川区旗の台5-13-12","beerName":["みのう","ミノウ","みのお","ミノオ","箕面"],"latitude":"35.601176","longitude":"139.704913","state":"東京都"},
{"name":"リバーサイド","phone_number":"03-5577-4199","address":"板橋区中板橋4-15-1","beerName":["みのう","ミノウ","みのお","ミノオ","箕面"],"latitude":"35.753012","longitude":"139.703709","state":"東京都"},
{"name":"風来坊","phone_number":"080-6560-3946","address":"北区十条仲原1-1-2","beerName":["みのう","ミノウ","みのお","ミノオ","箕面"],"latitude":"35.758257","longitude":"139.725183","state":"東京都"},
{"name":"ビアカフェ ガンブリヌス","phone_number":"042-325-0484","address":"国分寺市南町3-16-5","beerName":["みのう","ミノウ","みのお","ミノオ","箕面"],"latitude":"35.695728","longitude":"139.483209","state":"東京都"},
{"name":"h@bit","phone_number":"03-3768-5447","address":"品川区南大井3-33-7","beerName":["みのう","ミノウ","みのお","ミノオ","箕面"],"latitude":"35.584212","longitude":"139.737711","state":"東京都"},
{"name":"目黒リパブリック","phone_number":"03-3441-6181","address":"品川区上大崎3-3-1","beerName":["みのう","ミノウ","みのお","ミノオ","箕面"],"latitude":"35.630562","longitude":"139.720967","state":"東京都"},
{"name":"Beer Dining The GRIFFON","phone_number":"03-3498-0839","address":"渋谷区渋谷2-22-6","beerName":["みのう","ミノウ","みのお","ミノオ","箕面"],"latitude":"35.655226","longitude":"139.707036","state":"東京都"},
{"name":"TAKI","phone_number":"03-3780-0656","address":"渋谷区桜丘町17-12","beerName":["みのう","ミノウ","みのお","ミノオ","箕面"],"latitude":"35.652912","longitude":"139.704522","state":"東京都"},
{"name":"Shot Bar ゾートロープ","phone_number":"03-3363-0162","address":"新宿区西新宿7-10-14","beerName":["みのう","ミノウ","みのお","ミノオ","箕面"],"latitude":"35.691248","longitude":"139.701633","state":"東京都"},
{"name":"地ビールバー まる麦","phone_number":"03-6380-4745","address":"新宿区荒木町1","beerName":["みのう","ミノウ","みのお","ミノオ","箕面"],"latitude":"35.685631","longitude":"139.725172","state":"東京都"},
{"name":"神楽坂 ラ・カシェット","phone_number":"03-3513-0823","address":"新宿区神楽坂1-10","beerName":["みのう","ミノウ","みのお","ミノオ","箕面"],"latitude":"35.697222","longitude":"139.745425","state":"東京都"},
{"name":"New School","phone_number":"03-3232-2626","address":"新宿区西早稲田2-1-17","beerName":["みのう","ミノウ","みのお","ミノオ","箕面"],"latitude":"35.703306","longitude":"139.721039","state":"東京都"},
{"name":"焼き貝　あぶさん","phone_number":"03-3330-6855","address":"杉並区高円寺北2-38-15","beerName":["みのう","ミノウ","みのお","ミノオ","箕面"],"latitude":"35.705409","longitude":"139.653153","state":"東京都"},
{"name":"BAR 私","phone_number":"03-5356-9375","address":"杉並区高円寺北3-2-1","beerName":["みのう","ミノウ","みのお","ミノオ","箕面"],"latitude":"35.702345","longitude":"139.651523","state":"東京都"},
{"name":"Beer Bar STONE","phone_number":"03-5373-0312","address":"杉並区阿佐ヶ谷北2-4-2","beerName":["みのう","ミノウ","みのお","ミノオ","箕面"],"latitude":"35.701784","longitude":"139.636783","state":"東京都"},
{"name":"萬感","phone_number":"03-3314-5008","address":"杉並区高円寺南3-47-8","beerName":["みのう","ミノウ","みのお","ミノオ","箕面"],"latitude":"35.700522","longitude":"139.651177","state":"東京都"},
{"name":"麦酒倶楽部 ポパイ","phone_number":"03-3633-2120","address":"墨田区両国2-18-7","beerName":["みのう","ミノウ","みのお","ミノオ","箕面"],"latitude":"35.691844","longitude":"139.795904","state":"東京都"},
{"name":"ビアバー うしとら","phone_number":"03-3485-9090","address":"世田谷区北沢2-9-3","beerName":["みのう","ミノウ","みのお","ミノオ","箕面"],"latitude":"35.658839","longitude":"139.672004","state":"東京都"},
{"name":"TACHIKAWA BREWERY","phone_number":"042-526-2766","address":"立川市柴崎町3-1-7","beerName":["みのう","ミノウ","みのお","ミノオ","箕面"],"latitude":"35.69414","longitude":"139.415447","state":"東京都"},
{"name":"DEVIL CRAFT","phone_number":"03-6265-1779","address":"中央区日本橋室町4-2-3","beerName":["みのう","ミノウ","みのお","ミノオ","箕面"],"latitude":"35.686342","longitude":"139.774378","state":"東京都"},
{"name":"BEER PUB BACCHUS","phone_number":"03-3231-4666","address":"中央区八重洲1-7-7","beerName":["みのう","ミノウ","みのお","ミノオ","箕面"],"latitude":"35.677636","longitude":"139.774009","state":"東京都"},
{"name":"BULLDOG","phone_number":"03-3564-0996","address":"中央区銀座西3-1 銀座インズ１","beerName":["みのう","ミノウ","みのお","ミノオ","箕面"],"latitude":"35.671242","longitude":"139.768095","state":"東京都"},
{"name":"Bar　Ocean","phone_number":"03-5856-3366","address":"中央区八重洲1-4-20","beerName":["みのう","ミノウ","みのお","ミノオ","箕面"],"latitude":"35.679259","longitude":"139.773956","state":"東京都"},
{"name":"モルタン","phone_number":"03-6659-5884","address":"千代田区内神田3-13-10","beerName":["みのう","ミノウ","みのお","ミノオ","箕面"],"latitude":"35.688309","longitude":"139.773598","state":"東京都"},
{"name":"PLATITUDEFORM DELI + CAFE","phone_number":"03-5259-8051","address":"千代田区神田錦町3-21 ちよだプラットフォームスクウェア内","beerName":["みのう","ミノウ","みのお","ミノオ","箕面"],"latitude":"35.688604","longitude":"139.766163","state":" "},
{"name":"地ビールハウス　蔵くら","phone_number":"03-6206-8866","address":"千代田区鍛冶町1-4-6","beerName":["みのう","ミノウ","みのお","ミノオ","箕面"],"latitude":"35.686414","longitude":"139.774045","state":"東京都"},
{"name":"barBAR Ｔokyo","phone_number":"03-3216-0581","address":"千代田区丸の内1-9-1","beerName":["みのう","ミノウ","みのお","ミノオ","箕面"],"latitude":"35.679779","longitude":"139.771637","state":"東京都"},
{"name":"Ale House","phone_number":"03-3980-4845","address":"豊島区西池袋1-16-8 山口ビル","beerName":["みのう","ミノウ","みのお","ミノオ","箕面"],"latitude":"35.727669","longitude":"139.712085","state":"東京都"},
{"name":"vivo","phone_number":"03-3987-1588","address":"豊島区東池袋1-20-5 七富久ビル","beerName":["みのう","ミノウ","みのお","ミノオ","箕面"],"latitude":"35.727592","longitude":"139.718669","state":"東京都"},
{"name":"The Cat & Cask Tavern","phone_number":"03-3530-6180","address":"豊島区要町1-32-10","beerName":["みのう","ミノウ","みのお","ミノオ","箕面"],"latitude":"35.732503","longitude":"139.698403","state":"東京都"},
{"name":"DRY DOCK","phone_number":"03-5777-4755","address":"港区新橋3-25-10","beerName":["みのう","ミノウ","みのお","ミノオ","箕面"],"latitude":"35.661498","longitude":"139.761664","state":"東京都"},
{"name":"Ant'n Bee","phone_number":"03-3478-1250","address":"港区六本木5-1-5","beerName":["みのう","ミノウ","みのお","ミノオ","箕面"],"latitude":"35.659481","longitude":"139.736242","state":"東京都"},
{"name":"CRAFT BEER MARKET 虎ノ門店","phone_number":"03-6206-1603","address":"港区西新橋1-23-3 S.A.グレイス","beerName":["みのう","ミノウ","みのお","ミノオ","箕面"],"latitude":"35.665368","longitude":"139.75499","state":"東京都"},
{"name":"樽生ビール専門店　COOPER ALE'S","phone_number":"03-6450-1377","address":"港区新橋3-16-3","beerName":["みのう","ミノウ","みのお","ミノオ","箕面"],"latitude":"35.662384","longitude":"139.760333","state":"東京都"},
{"name":"憩 ikoi","phone_number":"03-6435-4145","address":"港区南麻布1-6-3","beerName":["みのう","ミノウ","みのお","ミノオ","箕面"],"latitude":"35.649267","longitude":"139.738658","state":"東京都"},
{"name":"TAKIEY","phone_number":"03-5731-7484","address":"目黒区平町1-26-13","beerName":["みのう","ミノウ","みのお","ミノオ","箕面"],"latitude":"35.614262","longitude":"139.679986","state":"東京都"},
{"name":"ハンモックカフェ mahikamano","phone_number":"0422-42-5930","address":"武蔵野市吉祥寺南町2-8-1","beerName":["みのう","ミノウ","みのお","ミノオ","箕面"],"latitude":"35.69909","longitude":"139.585423","state":"東京都"},
{"name":"テラスカフェ720","phone_number":"03-5731-8500","address":"目黒区中根2-1-15","beerName":["みのう","ミノウ","みのお","ミノオ","箕面"],"latitude":"35.613001","longitude":"139.680191","state":"東京都"},
{"name":"Nelson's","phone_number":"03-5704-3588","address":"目黒区五本木3-30-6","beerName":["みのう","ミノウ","みのお","ミノオ","箕面"],"latitude":"35.626676","longitude":"139.685002","state":"東京都"},
{"name":"Speyside Way","phone_number":"03-3723-7807","address":"目黒区自由が丘1-26-9","beerName":["みのう","ミノウ","みのお","ミノオ","箕面"],"latitude":"35.60554","longitude":"139.671819","state":"東京都"},
{"name":"Gold'nBub","phone_number":"0466-51-4176","address":"藤沢市辻堂2-9-30","beerName":["みのう","ミノウ","みのお","ミノオ","箕面"],"latitude":"35.332246","longitude":"139.449491","state":"神奈川県"},
{"name":"Century Break","phone_number":"0466-25-5688","address":"藤沢市鵠沼石上1-4-6","beerName":["みのう","ミノウ","みのお","ミノオ","箕面"],"latitude":"35.333182","longitude":"139.492101","state":"神奈川県"},
{"name":"Beer Cafe HOPMAN","phone_number":"0467-85-5688","address":"茅ヶ崎市十間坂1-1-23","beerName":["みのう","ミノウ","みのお","ミノオ","箕面"],"latitude":"35.327612","longitude":"139.404953","state":"神奈川県"},
{"name":"Beer Republic","phone_number":"045-444-0502","address":"横浜市神奈川区金港町6-13","beerName":["みのう","ミノウ","みのお","ミノオ","箕面"],"latitude":"35.466037","longitude":"139.629566","state":"神奈川県"},
{"name":"KEEL'S BAR HOUSE","phone_number":"045-985-7522","address":"横浜市青葉区青葉台2-11-28","beerName":["みのう","ミノウ","みのお","ミノオ","箕面"],"latitude":"35.542889","longitude":"139.519927","state":"神奈川県"},
{"name":"クラフトビアバー","phone_number":"045-651-0440","address":"横浜市中区太田町2-31-3","beerName":["みのう","ミノウ","みのお","ミノオ","箕面"],"latitude":"35.443497","longitude":"139.641869","state":"神奈川県"},
{"name":"アイリッシュバー・マッキャンズ","phone_number":"044-711-1761","address":"川崎市中原区小杉町3-269-3","beerName":["みのう","ミノウ","みのお","ミノオ","箕面"],"latitude":"35.573286","longitude":"139.659862","state":"神奈川県"},
{"name":"CRAFT BEER BABY","phone_number":"048-705-3000","address":"さいたま市浦和区高砂2-8-8","beerName":["みのう","ミノウ","みのお","ミノオ","箕面"],"latitude":"35.855327","longitude":"139.657765","state":"埼玉県"},
{"name":"AL Fortuna","phone_number":"052-753-4799","address":"名古屋市千種区末盛通1-1 弘法屋ビル","beerName":["みのう","ミノウ","みのお","ミノオ","箕面"],"latitude":"35.163571","longitude":"136.955275","state":"愛知県"},
{"name":"23 craft beerz NAGOYA","phone_number":"052-265-9777","address":"名古屋市中区丸の内2-3-21 リヴィエール長者町","beerName":["みのう","ミノウ","みのお","ミノオ","箕面"],"latitude":"35.173461","longitude":"136.90293","state":"愛知県"},
{"name":"BEER & COFFEE 229","phone_number":"0564-74-7981","address":"岡崎市八幡町2-29","beerName":["みのう","ミノウ","みのお","ミノオ","箕面"],"latitude":"34.95722","longitude":"137.168613","state":" 愛知県"},
{"name":"Casa de Lazo","phone_number":"052-722-8882","address":"名古屋市東区矢田5-1-56","beerName":["みのう","ミノウ","みのお","ミノオ","箕面"],"latitude":"35.188496","longitude":"136.944538","state":"愛知県"},
{"name":"地酒地焼酎 かない","phone_number":"052-953-6121","address":"名古屋市東区東桜1-2-25 野々山ビル","beerName":["みのう","ミノウ","みのお","ミノオ","箕面"],"latitude":"35.169777","longitude":"136.913998","state":"愛知県"},
{"name":"キッチン雅木","phone_number":"052-703-3614","address":"名古屋市名東区野間町14","beerName":["みのう","ミノウ","みのお","ミノオ","箕面"],"latitude":"35.157165","longitude":"137.0101","state":"愛知県"},
{"name":"KEG NAGOYA","phone_number":"052-971-8211","address":"名古屋市東区東桜1-10-13","beerName":["みのう","ミノウ","みのお","ミノオ","箕面"],"latitude":"35.16949","longitude":"136.913089","state":"愛知県"},
{"name":"Beerhouse&yakitori CHICKEN BOY","phone_number":"052-732-3177","address":"名古屋市千種区内山3-31-14","beerName":["みのう","ミノウ","みのお","ミノオ","箕面"],"latitude":"35.166401","longitude":"136.938669","state":"愛知県"},
{"name":"MAX’S　BAR","phone_number":"052-238-5100","address":"名古屋市中区大須4-1-7 サンポート矢場ビル","beerName":["みのう","ミノウ","みのお","ミノオ","箕面"],"latitude":"35.155192","longitude":"136.907064","state":"愛知県"},
{"name":"Rohan","phone_number":"025-244-9000","address":"新潟市中央区南万代町1-7","beerName":["みのう","ミノウ","みのお","ミノオ","箕面"],"latitude":"37.9106","longitude":"139.060836","state":"新潟県"},
{"name":"ビールのヨコタ","phone_number":"054-255-3683","address":"静岡市葵区呉服町2-5-22","beerName":["みのう","ミノウ","みのお","ミノオ","箕面"],"latitude":"34.971153","longitude":"138.386842","state":"静岡県"},
{"name":"GROW STOCK","phone_number":"054-293-9331","address":"静岡市葵区紺屋町6-9 紺屋町中ビル","beerName":["みのう","ミノウ","みのお","ミノオ","箕面"],"latitude":"34.969698","longitude":"138.388619","state":"静岡県"},
{"name":"ダイニングバー　黒ひげ","phone_number":"06-6885-5139","address":"大阪市淀川区十三本町3-7-46","beerName":["みのう","ミノウ","みのお","ミノオ","箕面"],"latitude":"34.7186","longitude":"135.484325","state":"大阪府"},
{"name":"たこもん","phone_number":"06-6581-8824　","address":"大阪市西区千代崎1-22-5","beerName":["みのう","ミノウ","みのお","ミノオ","箕面"],"latitude":"34.670453","longitude":"135.483016","state":"大阪府"},
{"name":"ビアバル・ダークホース","phone_number":"06-6131-6524","address":"大阪市福島区福島8-8-3","beerName":["みのう","ミノウ","みのお","ミノオ","箕面"],"latitude":"34.692806","longitude":"135.48666","state":"大阪府"},
{"name":"いたりあん居酒屋「裏道１階」","phone_number":"072-720-6636","address":"箕面市萱野2-11-4","beerName":["みのう","ミノウ","みのお","ミノオ","箕面"],"latitude":"34.828253","longitude":"135.488877","state":"大阪府"},
{"name":"Bar Lime Light","phone_number":"072-6010-261","address":"茨木市双葉町2-3","beerName":["みのう","ミノウ","みのお","ミノオ","箕面"],"latitude":"34.814205","longitude":"135.580552","state":"大阪府"},
{"name":"Bar　みとう","phone_number":"06-6245-1358","address":"大阪市中央区東心斎橋1-18-2","beerName":["みのう","ミノウ","みのお","ミノオ","箕面"],"latitude":"34.670875","longitude":"135.506088","state":"大阪府"},
{"name":"Art dining Oval","phone_number":"06-6115-7756","address":"大阪市阿倍野区阿倍野筋2-4-45","beerName":["みのう","ミノウ","みのお","ミノオ","箕面"],"latitude":"34.640069","longitude":"135.515518","state":"大阪府"},
{"name":"ワインバー　リエゾン","phone_number":"06-4797-0626","address":"大阪市北区堂島1-3-33","beerName":["みのう","ミノウ","みのお","ミノオ","箕面"],"latitude":"34.693543","longitude":"135.501093","state":"大阪府"},
{"name":"カフェ サルンポワク","phone_number":"072-764-8200","address":"箕面市箕面6-2-18","beerName":["みのう","ミノウ","みのお","ミノオ","箕面"],"latitude":"34.831128","longitude":"135.471905","state":"大阪府"},
{"name":"Craft Beer Base","phone_number":"06-6131-7015","address":"大阪市北区大淀南1丁目2‐11","beerName":["みのう","ミノウ","みのお","ミノオ","箕面"],"latitude":"34.700131","longitude":"135.493122","state":"大阪府"},
{"name":"串焼屋","phone_number":"06-6651-0844","address":"大阪市西成区玉出西2-2-1","beerName":["みのう","ミノウ","みのお","ミノオ","箕面"],"latitude":"34.622465","longitude":"135.493493","state":"大阪府"},
{"name":"吉風","phone_number":"06-6211-7019","address":"大阪市中央区心斎橋筋2-7-11 日宝ロイヤルビル１Ｆ","beerName":["みのう","ミノウ","みのお","ミノオ","箕面"],"latitude":"34.667287","longitude":"135.50374","state":"大阪府"},
{"name":"Kamikaze","phone_number":"06-6539-7550","address":"大阪市西区北堀江1-22-21","beerName":["みのう","ミノウ","みのお","ミノオ","箕面"],"latitude":"34.670759","longitude":"135.496291","state":"大阪府"},
{"name":"楽酒楽肴 越冬","phone_number":"06-6943-8161","address":"大阪市中央区本町橋 7-13　松井ビル１階","beerName":["みのう","ミノウ","みのお","ミノオ","箕面"],"latitude":"34.679946","longitude":"135.513919","state":"大阪府"},
{"name":"RICOCHE　千成屋","phone_number":"06-6641-3261","address":"大阪市中央区難波3-2-28","beerName":["みのう","ミノウ","みのお","ミノオ","箕面"],"latitude":"34.662873","longitude":"135.504369","state":"大阪府"},
{"name":"ri:casa","phone_number":"06-6921-3892","address":"大阪市都島区都島本通4-22-15","beerName":["みのう","ミノウ","みのお","ミノオ","箕面"],"latitude":"34.705325","longitude":"135.534694","state":"大阪府"},
{"name":"THE QUICK PIZZA","phone_number":"06-6359-8787","address":"大阪市北区本庄東3-9-15","beerName":["みのう","ミノウ","みのお","ミノオ","箕面"],"latitude":"34.711978","longitude":"135.510272","state":"大阪府"},
{"name":"MJB珈琲店","phone_number":"06-6203-0078","address":"大阪市中央区北浜4-1-1 石原ビルＢ１Ｆ","beerName":["みのう","ミノウ","みのお","ミノオ","箕面"],"latitude":"34.689113","longitude":"135.503477","state":"大阪府"},
{"name":"Kokopelli","phone_number":"06-7502-3757","address":"大阪市中央区難波1-6-5 TMビル1F","beerName":["みのう","ミノウ","みのお","ミノオ","箕面"],"latitude":"34.664493","longitude":"135.504522","state":"大阪府"},
{"name":"BAR JURA","phone_number":"06-6361-1158","address":"大阪市北区兎我野町12-15 丸一ビル１階","beerName":["みのう","ミノウ","みのお","ミノオ","箕面"],"latitude":"34.697764","longitude":"135.505519","state":"大阪府"},
{"name":"Bar hakushe","phone_number":"06-6458-1677","address":"大阪市福島区福島5-8-16","beerName":["みのう","ミノウ","みのお","ミノオ","箕面"],"latitude":"34.692876","longitude":"135.490254","state":"大阪府"},
{"name":"なんば　松潮屋","phone_number":"06-6212-1178","address":"大阪市中央区難波1-3-13","beerName":["みのう","ミノウ","みのお","ミノオ","箕面"],"latitude":"34.664211","longitude":"135.505324","state":"大阪府"},
{"name":"樋口酒店","phone_number":"072-721-3112","address":"箕面市箕面1-1-37","beerName":["みのう","ミノウ","みのお","ミノオ","箕面"],"latitude":"34.83275","longitude":"135.471199","state":"大阪府"},
{"name":"橋本亭","phone_number":"072-721-3221","address":"箕面市箕面2-5-37","beerName":["みのう","ミノウ","みのお","ミノオ","箕面"],"latitude":"34.834884","longitude":"135.472685","state":"大阪府"},
{"name":"コージーコテージ","phone_number":"072-702-0596","address":"箕面市箕面4-2-23","beerName":["みのう","ミノウ","みのお","ミノオ","箕面"],"latitude":"34.830895","longitude":"135.481709","state":"大阪府"},
{"name":"スーパー居酒家キッチンマルコン","phone_number":"072-724-0551","address":"箕面市箕面5-13-46","beerName":["みのう","ミノウ","みのお","ミノオ","箕面"],"latitude":"34.829565","longitude":"135.473365","state":"大阪府"},
{"name":"洋風料理 フェリーチェ","phone_number":"072-720-3031","address":"箕面市箕面6-1-32 1F","beerName":["みのう","ミノウ","みのお","ミノオ","箕面"],"latitude":"34.829745","longitude":"135.471698","state":"大阪府"},
{"name":"鉄板焼居酒屋 轍","phone_number":"072-723-8600","address":"箕面市箕面6-1-34 101","beerName":["みのう","ミノウ","みのお","ミノオ","箕面"],"latitude":"34.829745","longitude":"135.471698","state":"大阪府"},
{"name":"串かつ 壺千","phone_number":"072-723-0077","address":"箕面市箕面6-1-34","beerName":["みのう","ミノウ","みのお","ミノオ","箕面"],"latitude":"34.82952","longitude":"135.47127","state":"大阪府"},
{"name":"食事処／支那そば　しいな","phone_number":"072-700-4117","address":"箕面市粟生外院6-2-33","beerName":["みのう","ミノウ","みのお","ミノオ","箕面"],"latitude":"34.840264","longitude":"135.505535","state":"大阪府"},
{"name":"やき鳥しゃっくん","phone_number":"072-727-3018","address":"箕面市石丸2-7-1","beerName":["みのう","ミノウ","みのお","ミノオ","箕面"],"latitude":"34.83547","longitude":"135.500152","state":"大阪府"},
{"name":"美々卯　箕面店","phone_number":"072-720-5688","address":"箕面市稲1-1-19","beerName":["みのう","ミノウ","みのお","ミノオ","箕面"],"latitude":"34.821231","longitude":"135.478443","state":"大阪府"},
{"name":"狩人食堂","phone_number":"072-725-0101","address":"箕面市温泉町1-1","beerName":["みのう","ミノウ","みのお","ミノオ","箕面"],"latitude":"34.835308","longitude":"135.470991","state":"大阪府"},
{"name":"menu","phone_number":"072-724-7246","address":"箕面市桜井2-10-5 桜井市場内","beerName":["みのう","ミノウ","みのお","ミノオ","箕面"],"latitude":"34.812713","longitude":"135.465351","state":"大阪府"},
{"name":"ENJYA","phone_number":"072-725-3422","address":"箕面市桜井2-10-23","beerName":["みのう","ミノウ","みのお","ミノオ","箕面"],"latitude":"34.811992","longitude":"135.465095","state":"大阪府"},
{"name":"手打ち蕎麦処 丹波","phone_number":"072-727-8087","address":"箕面市船場西3-8-6","beerName":["みのう","ミノウ","みのお","ミノオ","箕面"],"latitude":"34.815323","longitude":"135.490913","state":"大阪府"},
{"name":"手造りハンバーグの店","phone_number":"072-722-1228","address":"箕面市白島2-28-7","beerName":["みのう","ミノウ","みのお","ミノオ","箕面"],"latitude":"34.835076","longitude":"135.490554","state":"大阪府"},
{"name":"炭火焼肉 七輪","phone_number":"072-722-6160","address":"箕面市牧落5-5-24","beerName":["みのう","ミノウ","みのお","ミノオ","箕面"],"latitude":"34.81747","longitude":"135.475706","state":"大阪府"},
{"name":"楓来坊","phone_number":"072-725-1168","address":"箕面市箕面公園2-74","beerName":["みのう","ミノウ","みのお","ミノオ","箕面"],"latitude":"34.850106","longitude":"135.474912","state":"大阪府"},
{"name":"宵ノKθFUKU","phone_number":"072-761-6803","address":"池田市石橋2-15-33","beerName":["みのう","ミノウ","みのお","ミノオ","箕面"],"latitude":"34.805208","longitude":"135.449948","state":"大阪府"},
{"name":"創作居酒屋　おっげ","phone_number":"072-632-5439","address":"茨木市東奈良3-16-36","beerName":["みのう","ミノウ","みのお","ミノオ","箕面"],"latitude":"34.798583","longitude":"135.570776","state":"大阪府"},
{"name":"まるしん","phone_number":"06-6358-0081","address":"大阪市北区池田町7-1","beerName":["みのう","ミノウ","みのお","ミノオ","箕面"],"latitude":"34.70375","longitude":"135.515824","state":"大阪府"},
{"name":"Cafe Bar Ima Doma","phone_number":"06-6940-7255","address":"大阪市北区浮田1-1-15","beerName":["みのう","ミノウ","みのお","ミノオ","箕面"],"latitude":"34.705509","longitude":"135.512064","state":"大阪府"},
{"name":"brasserie boo","phone_number":"06-6348-1159","address":"大阪市北区梅田2丁目4-13 阪神産経桜橋ビル1F","beerName":["みのう","ミノウ","みのお","ミノオ","箕面"],"latitude":"34.695213","longitude":"135.498337","state":"大阪府"},
{"name":"RE-CAFE","phone_number":"06-6485-7773","address":"大阪市北区梅田3-1-3","beerName":["みのう","ミノウ","みのお","ミノオ","箕面"],"latitude":"34.699697","longitude":"135.498338","state":"大阪府"},
{"name":"会津屋　梅田店","phone_number":"06-6346-3444","address":"大阪市北区梅田3-2-136　梅三小路内","beerName":["みのう","ミノウ","みのお","ミノオ","箕面"],"latitude":"34.697528","longitude":"135.495607","state":"大阪府"},
{"name":"炉端屋つばめいろ","phone_number":"06-4797-2266","address":"大阪市北区大淀中1-16-16","beerName":["みのう","ミノウ","みのお","ミノオ","箕面"],"latitude":"34.703092","longitude":"135.491166","state":"大阪府"},
{"name":"CRAFT BEER HOUSE molto!","phone_number":"06-6809-2641","address":"大阪市北区角田町8-47　阪急グランドビル31階","beerName":["みのう","ミノウ","みのお","ミノオ","箕面"],"latitude":"34.699744","longitude":"135.501863","state":"大阪府"},
{"name":"アレグレ","phone_number":"06-6361-6060","address":"大阪市北区小松原町1-11 阪急東通り 田園ビル2F","beerName":["みのう","ミノウ","みのお","ミノオ","箕面"],"latitude":"34.699342","longitude":"135.503565","state":"大阪府"},
{"name":"ワイン食堂リエゾン茶屋町","phone_number":"06-6359-8711","address":"大阪市北区芝田1-6-2 阪急古書のまち１F","beerName":["みのう","ミノウ","みのお","ミノオ","箕面"],"latitude":"34.702566","longitude":"135.500672","state":"大阪府"},
{"name":"イタリア酒場 ENTRATA 茶屋町店","phone_number":"06-6374-3066","address":"大阪市北区芝田1-7-2","beerName":["みのう","ミノウ","みのお","ミノオ","箕面"],"latitude":"34.704098","longitude":"135.500772","state":"大阪府"},
{"name":"Bar 道成","phone_number":"06-6311-7314","address":"大阪市北区曽根崎2-5-24 石見ビル２Ｆ","beerName":["みのう","ミノウ","みのお","ミノオ","箕面"],"latitude":"34.696251","longitude":"135.504275","state":"大阪府"},
{"name":"地下酒場umbrella","phone_number":"06-6316-4440","address":"大阪市北区曽根崎２‐７‐２　松田ビル　Ｂ１","beerName":["みのう","ミノウ","みのお","ミノオ","箕面"],"latitude":"34.696417","longitude":"135.503105","state":"大阪府"},
{"name":"Living Place SUN","phone_number":"06-6348-0119","address":"大阪市北区曽根崎新地1-1-14 第二サウスビル２F","beerName":["みのう","ミノウ","みのお","ミノオ","箕面"],"latitude":"34.693527","longitude":"135.502507","state":"大阪府"},
{"name":"Beso Mary.r","phone_number":"06-6345-8885","address":"大阪市北区曽根崎新地1-3-10 北新地山忠ビル2号館B1F","beerName":["みのう","ミノウ","みのお","ミノオ","箕面"],"latitude":"34.694422","longitude":"135.501034","state":"大阪府"},
{"name":"cucina cucina","phone_number":"06-6344-9717","address":"大阪市北区曽根崎新地1-6-13 ニューセントラルビル1F","beerName":["みのう","ミノウ","みのお","ミノオ","箕面"],"latitude":"34.694284","longitude":"135.500941","state":"大阪府"},
{"name":"山吹","phone_number":"06-6345-4488","address":"大阪市北区曽根崎新地1-6-24 2F","beerName":["みのう","ミノウ","みのお","ミノオ","箕面"],"latitude":"34.694276","longitude":"135.501532","state":"大阪府"},
{"name":"酒場　トペ","phone_number":"090-3972-7194","address":"大阪市北区曾根崎新地1-8-3 遅ビル3F","beerName":["みのう","ミノウ","みのお","ミノオ","箕面"],"latitude":"34.694153","longitude":"135.503225","state":"大阪府"},
{"name":"Bar Quinta","phone_number":"06-6345-1911","address":"大阪市北区曽根崎新地1-11-6","beerName":["みのう","ミノウ","みのお","ミノオ","箕面"],"latitude":"34.694284","longitude":"135.501528","state":"大阪府"},
{"name":"STANDARD BOOKSTORE　茶屋町","phone_number":"06-6485-7139","address":"大阪市北区茶屋町8-26","beerName":["みのう","ミノウ","みのお","ミノオ","箕面"],"latitude":"34.703898","longitude":"135.502477","state":"大阪府"},
{"name":"TENMA BAR KAFU","phone_number":"06-6881-0530","address":"大阪市北区天神橋4-11-18","beerName":["みのう","ミノウ","みのお","ミノオ","箕面"],"latitude":"34.703047","longitude":"135.514463","state":"大阪府"},
{"name":"MUSH-UP","phone_number":"06-6351-3106","address":"大阪市北区天神橋6丁目3-26","beerName":["みのう","ミノウ","みのお","ミノオ","箕面"],"latitude":"34.706809","longitude":"135.515383","state":"大阪府"},
{"name":"マツケン食堂","phone_number":"06-6344-1099","address":"大阪市北区堂島1-3-19 薬師堂ビル１階1-C","beerName":["みのう","ミノウ","みのお","ミノオ","箕面"],"latitude":"34.693631","longitude":"135.50021","state":"大阪府"},
{"name":"大西デンキ","phone_number":"080-2481-0024","address":"大阪市北区堂島1-3-28　堂島センター１Ｆ","beerName":["みのう","ミノウ","みのお","ミノオ","箕面"],"latitude":"34.693628","longitude":"135.500573","state":"大阪府"},
 {"name":"TAVERNA ENTRATA","phone_number":"06-6345-0306","address":"大阪市北区堂島2-1-27 桜橋千代田ビル1F","beerName":["みのう","ミノウ","みのお","ミノオ","箕面"],"latitude":"34.693007","longitude":"135.497259","state":"大阪府"},
{"name":"市松","phone_number":"06-6346-0112","address":"大阪市北区堂島2-2-33 萬伸社ビル　１Ｆ","beerName":["みのう","ミノウ","みのお","ミノオ","箕面"],"latitude":"34.694044","longitude":"135.497701","state":"大阪府"},
{"name":"珈琲舎・書肆アラビク","phone_number":"06-7500-5519","address":"大阪市北区中崎3-2-14","beerName":["みのう","ミノウ","みのお","ミノオ","箕面"],"latitude":"34.705229","longitude":"135.507657","state":"大阪府"},
{"name":"ごちそう埋蔵の店　くらや","phone_number":"06-6315-8760","address":"大阪市北区堂山町2-13","beerName":["みのう","ミノウ","みのお","ミノオ","箕面"],"latitude":"34.699598","longitude":"135.506541","state":"大阪府"},
{"name":"Tina Lente","phone_number":"06-6359-2448","address":"大阪市北区中崎西1－7－28","beerName":["みのう","ミノウ","みのお","ミノオ","箕面"],"latitude":"34.704851","longitude":"135.507363","state":"大阪府"},
{"name":"飛鳥","phone_number":"06-6361-0137","address":"大阪市北区西天満３丁目８－１８","beerName":["みのう","ミノウ","みのお","ミノオ","箕面"],"latitude":"34.691989","longitude":"135.510616","state":"大阪府"},
{"name":"おいしい肉とお酒 月桃","phone_number":"06-6361-4335","address":"大阪市北区山崎町2-2 グリーン関野ビル1F","beerName":["みのう","ミノウ","みのお","ミノオ","箕面"],"latitude":"34.702579","longitude":"135.512239","state":"大阪府"},
{"name":"イタリア食堂 pelotto","phone_number":"080-3516-8094","address":"大阪市此花区西九条3-12-13","beerName":["みのう","ミノウ","みのお","ミノオ","箕面"],"latitude":"34.680248","longitude":"135.469518","state":"大阪府"},
{"name":"庵　よすが","phone_number":"06-7890-6210","address":"大阪市住吉区苅田3-12-16 苅田３丁目ハイツ","beerName":["みのう","ミノウ","みのお","ミノオ","箕面"],"latitude":"34.597932","longitude":"135.519029","state":"大阪府"},
{"name":"DINING BAR Cache-Cache","phone_number":"06-6180-5555","address":"大阪市城東区蒲生1-8-5","beerName":["みのう","ミノウ","みのお","ミノオ","箕面"],"latitude":"34.695087","longitude":"135.539552","state":"大阪府"},
{"name":"レ　コッコレ","phone_number":"06-6245-5556","address":"大阪市中央区北久宝寺町3-4-1　豆庭ビル1,2階","beerName":["みのう","ミノウ","みのお","ミノオ","箕面"],"latitude":"34.677101","longitude":"135.505074","state":"大阪府"},
{"name":"MJB珈琲店","phone_number":"06-6203-0078","address":"大阪市中央区北浜4-1-1 石原ビル　Ｂ１Ｆ","beerName":["みのう","ミノウ","みのお","ミノオ","箕面"],"latitude":"34.689113","longitude":"135.503477","state":"大阪府"},
{"name":"旬菜　桜花","phone_number":"06-6201-0223","address":"大阪市中央区高麗橋4-5-13 淀屋橋サテライトビル1F","beerName":["みのう","ミノウ","みのお","ミノオ","箕面"],"latitude":"34.686979","longitude":"135.50096","state":"大阪府"},
{"name":"大阪産（もん）料理　空　船場女将小路店","phone_number":"06-6241-5855","address":"大阪市中央区船場中央4-1-10 船場センタービル10号館B1","beerName":["みのう","ミノウ","みのお","ミノオ","箕面"],"latitude":"34.678564","longitude":"135.506835","state":"大阪府"},
{"name":"アララギ","phone_number":"06-6764-1238","address":"大阪市中央区谷町6-18-28","beerName":["みのう","ミノウ","みのお","ミノオ","箕面"],"latitude":"34.672353","longitude":"135.516224","state":"大阪府"},
{"name":"しゃんらん","phone_number":"06-4304-0064","address":"大阪市中央区玉造1-6-22","beerName":["みのう","ミノウ","みのお","ミノオ","箕面"],"latitude":"34.671813","longitude":"135.533647","state":"大阪府"},
{"name":"hang","phone_number":"06-6762-2515","address":"大阪市中央区玉造2-16-25　大江ビル１F","beerName":["みのう","ミノウ","みのお","ミノオ","箕面"],"latitude":"34.671834","longitude":"135.532224","state":"大阪府"},
{"name":"RICOCHE","phone_number":"06-6641-3261","address":"大阪市中央区難波3-2-28","beerName":["みのう","ミノウ","みのお","ミノオ","箕面"],"latitude":"34.662873","longitude":"135.504369","state":"大阪府"},
{"name":"BAR KITAYAMA","phone_number":"06-6632-7722","address":"大阪市中央区難波4-7-9 南進会館　１Ｆ","beerName":["みのう","ミノウ","みのお","ミノオ","箕面"],"latitude":"34.663446","longitude":"135.501621","state":"大阪府"},
{"name":"会津屋　ナンバ店","phone_number":"06-6649-7708","address":"大阪市中央区難波5丁目　　ナンバなんなん内","beerName":["みのう","ミノウ","みのお","ミノオ","箕面"],"latitude":"34.661488","longitude":"135.50377","state":"大阪府"},
{"name":"居酒屋 さんぽ","phone_number":"06-6631-3353","address":"大阪市中央区難波5-1-18 なんばダイニングメゾン8F","beerName":["みのう","ミノウ","みのお","ミノオ","箕面"],"latitude":"34.661487","longitude":"135.503633","state":"大阪府"},
{"name":"リュミエール レスプリカ","phone_number":"06-6633-2281","address":"大阪市中央区難波5-1-18　なんばダイニングメゾン 9F","beerName":["みのう","ミノウ","みのお","ミノオ","箕面"],"latitude":"34.661494","longitude":"135.503294","state":"大阪府"},
{"name":"STANDARD BOOKSTORE　心斎橋","phone_number":"06-6484-2239","address":"大阪市中央区西心斎橋2-2-12クリスタグランドビルBF","beerName":["みのう","ミノウ","みのお","ミノオ","箕面"],"latitude":"34.667345","longitude":"135.50253","state":"大阪府"},
{"name":"焼肉　仁","phone_number":"06-6211-6165","address":"大阪市中央区西心斎橋2-9-17 オービットステージ1F","beerName":["みのう","ミノウ","みのお","ミノオ","箕面"],"latitude":"34.667209","longitude":"135.501208","state":"大阪府"},
{"name":"Pinot noir","phone_number":"06-6253-1167","address":"大阪市中央区東心斎橋1-8-14 オーブ・ナテ　２Ｆ","beerName":["みのう","ミノウ","みのお","ミノオ","箕面"],"latitude":"34.669663","longitude":"135.506906","state":"大阪府"},
{"name":"パシオン・エ・ナチュール　心斎橋店","phone_number":"06-6241-1159","address":"大阪市中央区東心斎橋1-12-14 ゼルコヴァビル１Ｆ","beerName":["みのう","ミノウ","みのお","ミノオ","箕面"],"latitude":"34.671253","longitude":"135.506259","state":"大阪府"},
{"name":"Ritto marble＊tre","phone_number":"06-4704-5678","address":"大阪市中央区東心斎橋1-13-20 カネコマビル2F","beerName":["みのう","ミノウ","みのお","ミノオ","箕面"],"latitude":"34.670582","longitude":"135.506409","state":"大阪府"},
{"name":"BOOTLEG TAVARN","phone_number":"06-6245-4748","address":"大阪市中央区東心斎橋1-15-11 日宝周防町エレガンスビル１F","beerName":["みのう","ミノウ","みのお","ミノオ","箕面"],"latitude":"34.669219","longitude":"135.504263","state":"大阪府"},
{"name":"東心斎橋ほおずき","phone_number":"06-6252-2810","address":"大阪市中央区東心斎橋1-17-1 コスミビル 2階","beerName":["みのう","ミノウ","みのお","ミノオ","箕面"],"latitude":"34.670221","longitude":"135.506078","state":"大阪府"},
{"name":"和と菜と国の酒　来良し","phone_number":"06-6232-1270","address":"大阪市中央区平野町3-1-13","beerName":["みのう","ミノウ","みのお","ミノオ","箕面"],"latitude":"34.684686","longitude":"135.505594","state":"大阪府"},
{"name":"Qbrick","phone_number":"06-6203-0690","address":"大阪市中央区平野町4-6-12京音ビル,1F","beerName":["みのう","ミノウ","みのお","ミノオ","箕面"],"latitude":"34.684331","longitude":"135.501622","state":"大阪府"},
{"name":"The Court","phone_number":"06-6231-3200","address":"大阪市中央区伏見町3-3-3 芝川ビル　1F","beerName":["みのう","ミノウ","みのお","ミノオ","箕面"],"latitude":"34.685763","longitude":"135.504623","state":"大阪府"},
{"name":"Arcadian","phone_number":"06-4963-2653","address":"大阪市中央区南船場4-11-7","beerName":["みのう","ミノウ","みのお","ミノオ","箕面"],"latitude":"34.672878","longitude":"135.501677","state":"大阪府"},
{"name":"Beer Hop","phone_number":"06-6262-2024","address":"大阪市中央区南久宝寺町1-9-2 南久宝寺ビル1F","beerName":["みのう","ミノウ","みのお","ミノオ","箕面"],"latitude":"34.676154","longitude":"135.510084","state":"大阪府"},
{"name":"大阪とらふぐの会　本店","phone_number":"06-6711-0137","address":"大阪市天王寺区寺田町2-1-22 ロッキービル6F","beerName":["みのう","ミノウ","みのお","ミノオ","箕面"],"latitude":"34.647372","longitude":"135.525416","state":"大阪府"},
{"name":"Winebar・ya Riblin","phone_number":"06-6599-8188","address":"大阪市浪速区元町1-4-13 井本ビル1F","beerName":["みのう","ミノウ","みのお","ミノオ","箕面"],"latitude":"34.662222","longitude":"135.499808","state":"大阪府"},
{"name":"大阪産（もん）料理　空　堀江店","phone_number":"06-6648-8151","address":"大阪市西区北堀江1-1-27　イマイビル1階","beerName":["みのう","ミノウ","みのお","ミノオ","箕面"],"latitude":"34.671024","longitude":"135.500039","state":"大阪府"},
{"name":"天然食堂　かふぅ","phone_number":"06-6533-0775","address":"大阪市西区北堀江1-14-21","beerName":["みのう","ミノウ","みのお","ミノオ","箕面"],"latitude":"34.670001","longitude":"135.497304","state":"大阪府"},
{"name":"Craft Beer Works Kamikaze","phone_number":"06-6539-7550","address":"大阪市西区北堀江1-22-21 ヒフミヤビル１F","beerName":["みのう","ミノウ","みのお","ミノオ","箕面"],"latitude":"34.670773","longitude":"135.496319","state":"大阪府"},
{"name":"おでん・うどん　○","phone_number":"06-7493-3115","address":"大阪市西区北堀江3-4-2","beerName":["みのう","ミノウ","みのお","ミノオ","箕面"],"latitude":"34.670112","longitude":"135.493113","state":"大阪府"},
{"name":"ひまわり","phone_number":"06-6447-0922","address":"大阪市西区京町堀1-13-17","beerName":["みのう","ミノウ","みのお","ミノオ","箕面"],"latitude":"34.68339","longitude":"135.497388","state":"大阪府"},
{"name":"VADE MECVM","phone_number":"06-6447-1335","address":"大阪市西区京町堀1-13-21","beerName":["みのう","ミノウ","みのお","ミノオ","箕面"],"latitude":"34.68354","longitude":"135.497802","state":"大阪府"},
{"name":"ciucate","phone_number":"06-6441-2202","address":"大阪市西区京町堀1-17-3","beerName":["みのう","ミノウ","みのお","ミノオ","箕面"],"latitude":"34.684098","longitude":"135.496647","state":"大阪府"},
{"name":"おおの家","phone_number":"06-6585-7291","address":"大阪市西区新町1-23-8","beerName":["みのう","ミノウ","みのお","ミノオ","箕面"],"latitude":"34.673306","longitude":"135.49828","state":"大阪府"},
{"name":"HOSTEL 64 Osaka","phone_number":"06-6556-6586","address":"大阪市西区新町3-11-20","beerName":["みのう","ミノウ","みのお","ミノオ","箕面"],"latitude":"34.674784","longitude":"135.491155","state":"大阪府"},
{"name":"A769キッチン","phone_number":"06-6241-0769","address":"大阪市中央区南船場4-4-17","beerName":["みのう","ミノウ","みのお","ミノオ","箕面"],"latitude":"34.672506","longitude":"135.502377","state":"大阪府"},
{"name":"D&DEPARTMENT DINING OSAKA","phone_number":"06-4391-2090","address":"大阪市西区南堀江2-9-14","beerName":["みのう","ミノウ","みのお","ミノオ","箕面"],"latitude":"34.667756","longitude":"135.493238","state":"大阪府"},
{"name":"会津屋　本店","phone_number":"06-6651-2311","address":"大阪市西成区玉出西2-3-1","beerName":["みのう","ミノウ","みのお","ミノオ","箕面"],"latitude":"34.62201","longitude":"135.493379","state":"大阪府"},
{"name":"大阪まんぷく堂","phone_number":"06-6972-1199","address":"大阪市東成区大今里西3-4-14","beerName":["みのう","ミノウ","みのお","ミノオ","箕面"],"latitude":"34.665025","longitude":"135.544829","state":"大阪府"},
{"name":"THE DOGHOUSE INN","phone_number":"06-6972-3314","address":"大阪市東成区東小橋3-14-3","beerName":["みのう","ミノウ","みのお","ミノオ","箕面"],"latitude":"34.663983","longitude":"135.534235","state":"大阪府"},
{"name":"スタンド","phone_number":"06-7494-4841","address":"大阪市東成区東中本1-2-10　10F","beerName":["みのう","ミノウ","みのお","ミノオ","箕面"],"latitude":"34.678364","longitude":"135.548552","state":"大阪府"},
{"name":"網焼き　あぶら屋","phone_number":"06-6345-1002","address":"大阪市福島区鷺洲2-10-1","beerName":["みのう","ミノウ","みのお","ミノオ","箕面"],"latitude":"34.694548","longitude":"135.485557","state":"大阪府"},
{"name":"びんびとお酒　おがたまの木","phone_number":"06-6451-7557","address":"大阪市福島区福島2-7-20","beerName":["みのう","ミノウ","みのお","ミノオ","箕面"],"latitude":"34.691181","longitude":"135.49011","state":"大阪府"},
{"name":"kamoshiya Kusumoto","phone_number":"06-6455-8827","address":"大阪市福島区福島5-17-14","beerName":["みのう","ミノウ","みのお","ミノオ","箕面"],"latitude":"34.691834","longitude":"135.487291","state":"大阪府"},
{"name":"パシオン・エ・ナチュール 福島店","phone_number":"06-6452-1159","address":"大阪市福島区福島6-1 鉄道高架下","beerName":["みのう","ミノウ","みのお","ミノオ","箕面"],"latitude":"34.689685","longitude":"135.482975","state":"大阪府"},
{"name":"ONE'S OSAKA","phone_number":"06-6351-9173","address":"大阪市都島区東野田町2-9-7","beerName":["みのう","ミノウ","みのお","ミノオ","箕面"],"latitude":"34.694909","longitude":"135.534546","state":"大阪府"},
{"name":"リンコン カタルーニャ","phone_number":"06-6354-2314","address":"大阪市都島区東野田町3-6-12","beerName":["みのう","ミノウ","みのお","ミノオ","箕面"],"latitude":"34.694864","longitude":"135.53833","state":"大阪府"},
{"name":"HEAVEN`S CAFE","phone_number":"06-6309-7527","address":"大阪市淀川区十三東2-2-1","beerName":["みのう","ミノウ","みのお","ミノオ","箕面"],"latitude":"34.71814","longitude":"135.49043","state":"大阪府"},
{"name":"ビストロ ヴィサージュ","phone_number":"06-6394-5135","address":"大阪市淀川区宮原2-3-18","beerName":["みのう","ミノウ","みのお","ミノオ","箕面"],"latitude":"34.736678","longitude":"135.506378","state":"大阪府"},
{"name":"炭火焼鳥　一徹","phone_number":"0721-55-1181","address":"河内長野市菊水町1-7","beerName":["みのう","ミノウ","みのお","ミノオ","箕面"],"latitude":"34.447316","longitude":"135.576388","state":"大阪府"},
{"name":"eni-bru","phone_number":"072-255-8317","address":"堺市北区中百舌鳥町2-71","beerName":["みのう","ミノウ","みのお","ミノオ","箕面"],"latitude":"34.553684","longitude":"135.508409","state":"大阪府"},
{"name":"The 2nd Vine","phone_number":"072-255-8316","address":"堺市北区中百舌鳥町2-71 イルグランディ1F","beerName":["みのう","ミノウ","みのお","ミノオ","箕面"],"latitude":"34.553686","longitude":"135.508394","state":"大阪府"},
{"name":"麹庵","phone_number":"072-201-1194","address":"堺市中区深井沢町3373","beerName":["みのう","ミノウ","みのお","ミノオ","箕面"],"latitude":"34.52847","longitude":"135.501375","state":"大阪府"},
{"name":"炭火焼とり　鳥べえ","phone_number":"06-6330-6271","address":"吹田市岸部北2-4-26","beerName":["みのう","ミノウ","みのお","ミノオ","箕面"],"latitude":"34.775328","longitude":"135.53597","state":"大阪府"},
{"name":"江坂東急イン　シャングリラ","phone_number":"06-6338-4095","address":"吹田市豊津町9-6 江坂東急イン　２Ｆ","beerName":["みのう","ミノウ","みのお","ミノオ","箕面"],"latitude":"34.755109","longitude":"135.499125","state":"大阪府"},
{"name":"Bar Sputnik","phone_number":"072-695-5533","address":"高槻市大畑町3-1　オーニシビル２階","beerName":["みのう","ミノウ","みのお","ミノオ","箕面"],"latitude":"34.835163","longitude":"135.595431","state":"大阪府"},
{"name":"ダイニングバー オールズ","phone_number":"0726-84-1345","address":"高槻市高槻町11-7","beerName":["みのう","ミノウ","みのお","ミノオ","箕面"],"latitude":"34.847161","longitude":"135.623979","state":"大阪府"},
{"name":"喫茶去　ゆり","phone_number":"072-694 -0338","address":"高槻市氷室町2-51-2","beerName":["みのう","ミノウ","みのお","ミノオ","箕面"],"latitude":"34.846048","longitude":"135.59123","state":"大阪府"},
{"name":"いち凛","phone_number":"06-6858-3320","address":"豊中市中桜塚2-18-2 桜塚商店街","beerName":["みのう","ミノウ","みのお","ミノオ","箕面"],"latitude":"34.776912","longitude":"135.471326","state":"大阪府"},
{"name":"美酒嘉肴 利政214","phone_number":"080-2402-8064","address":"豊中市服部元町1-3-2","beerName":["みのう","ミノウ","みのお","ミノオ","箕面"],"latitude":"34.759759","longitude":"135.479323","state":"大阪府"},
{"name":"さしの花","phone_number":"06-6856-3487","address":"豊中市螢池北町1-1-1","beerName":["みのう","ミノウ","みのお","ミノオ","箕面"],"latitude":"34.793886","longitude":"135.450511","state":"大阪府"},
{"name":"味噌らーめん専門 みつか坊主","phone_number":"06-6850-3532","address":"豊中市螢池北町3-3-13","beerName":["みのう","ミノウ","みのお","ミノオ","箕面"],"latitude":"34.792489","longitude":"135.446834","state":"大阪府"},
{"name":"Apsara cafe","phone_number":"06-6832-5188","address":"豊中市本町6-1-3","beerName":["みのう","ミノウ","みのお","ミノオ","箕面"],"latitude":"34.78682","longitude":"135.46939","state":"大阪府"},
{"name":"かちがらす　八戸ノ里店","phone_number":"06-6781-8941","address":"東大阪市小阪2-15-14","beerName":["みのう","ミノウ","みのお","ミノオ","箕面"],"latitude":"34.66102","longitude":"135.59039","state":"大阪府"},
{"name":"Ages Cafe","phone_number":"072-805-0607","address":"枚方市禁野本町1-8-20 １Ｆ","beerName":["みのう","ミノウ","みのお","ミノオ","箕面"],"latitude":"34.815877","longitude":"135.660982","state":"大阪府"},
{"name":"Bar Amp","phone_number":"072-995-4666","address":"八尾市北本町1-3-2","beerName":["みのう","ミノウ","みのお","ミノオ","箕面"],"latitude":"34.628008","longitude":"135.602596","state":"大阪府"},
{"name":"炭火キッチン　とりこ","phone_number":"072-993-1011","address":"八尾市東本町3-9-36","beerName":["みのう","ミノウ","みのお","ミノオ","箕面"],"latitude":"34.625705","longitude":"135.607615","state":"大阪府"},
{"name":"はなみずき","phone_number":"06-6493-8718","address":"尼崎市潮江1-11-1 ラヴェール尼崎　１Ｆ","beerName":["みのう","ミノウ","みのお","ミノオ","箕面"],"latitude":"34.730056","longitude":"135.4365","state":"兵庫県"},
{"name":"うなぎ処 きし","phone_number":"072-755-0548","address":"宝塚市雲雀丘2-1-8 フローレンスきし1F","beerName":["みのう","ミノウ","みのお","ミノオ","箕面"],"latitude":"34.823613","longitude":"135.404511","state":"兵庫県"},
{"name":"大阪産（もん）料理　空　猪名寺本店","phone_number":"06-6498-2915","address":"尼崎市猪名寺2-11-11","beerName":["みのう","ミノウ","みのお","ミノオ","箕面"],"latitude":"34.762984","longitude":"135.427416","state":"兵庫県"},
{"name":"Beer Cafe Barley","phone_number":"0798-65-6135","address":"西宮市長田町1-15　リバティー２　２Ｆ","beerName":["みのう","ミノウ","みのお","ミノオ","箕面"],"latitude":"34.74448","longitude":"135.361844","state":"兵庫県"},
{"name":"酒食堂 風屋 －kajiya－","phone_number":"0798-22-7724","address":"西宮市馬場町2-23　馬場町ビル１Ｆ","beerName":["みのう","ミノウ","みのお","ミノオ","箕面"],"latitude":"34.731786","longitude":"135.341152","state":"兵庫県"},
{"name":"Man in the Moon","phone_number":"075-672-2522","address":"京都市下京区東塩小路釜殿町31-1 近鉄名店街みやこみち","beerName":["みのう","ミノウ","みのお","ミノオ","箕面"],"latitude":"34.98135","longitude":"135.759603","state":"京都府"},
{"name":"ハンデルス ベーゲン 北山店","phone_number":"075-708-1166","address":"京都市北区上賀茂岩ヶ垣内町95 スギサキビル1Ｆ東側","beerName":["みのう","ミノウ","みのお","ミノオ","箕面"],"latitude":"35.048242","longitude":"135.768843","state":"京都府"},
{"name":"京都 坊主BAR","phone_number":"075-252-3160","address":"京都市中京区油小路通蛸薬師下る山田町526番地","beerName":["みのう","ミノウ","みのお","ミノオ","箕面"],"latitude":"35.01027","longitude":"135.754424","state":"京都府"},
{"name":"和知","phone_number":"075-212-6342","address":"中京区高倉通四条帯屋町571","beerName":["みのう","ミノウ","みのお","ミノオ","箕面"],"latitude":"35.004347","longitude":"135.759744","state":"京都府"},
{"name":"BOTTLE STEP","phone_number":"0744-22-2701","address":"橿原市内膳町1-5-13 1F","beerName":["みのう","ミノウ","みのお","ミノオ","箕面"],"latitude":"34.508978","longitude":"135.794727","state":"奈良県"},
{"name":"ワインとビールのお店 Conami","phone_number":"082-246-9005","address":"広島市中区薬研堀3-6","beerName":["みのう","ミノウ","みのお","ミノオ","箕面"],"latitude":"34.38758","longitude":"132.467538","state":"広島県"},
{"name":"ビアライゼ","phone_number":"099-227-0088","address":"鹿児島市千日町９－１０　平田ビル１階奥","beerName":["みのう","ミノウ","みのお","ミノオ","箕面"],"latitude":"31.588347","longitude":"130.551087","state":"鹿児島県"},
{"name":"ムーンシャイン","phone_number":"099-223-1878","address":"鹿児島市山之口町１１−２０ 池田ビル ２Ｆ","beerName":["みのう","ミノウ","みのお","ミノオ","箕面"],
"latitude":"31.585596","longitude":"130.556472","state":"鹿児島県"},
 {"name":"I's Public Ale House","phone_number":"098-894-7486","address":"中頭郡北谷町美浜2-2-9　サンハイムビル２F－E","beerName":["みのう","ミノウ","みのお","ミノオ","箕面"],"latitude":"26.310539","longitude":"127.762091","state":"沖縄県"}]