[{"state":"北海道","shopFlg":false,"name":"EL MARQUEZ (エルマルケス）","phone_number":"011-280-0988","address":"北海道札幌市中央区南四条西5","latitude":"43.05546","longitude":"141.351044"},{"state":"青森県","shopFlg":false,"name":"FUSION BAR 3","phone_number":"0178-44-0225","address":"青森県八戸市長横町18","latitude":"40.508695","longitude":"141.492509"},{"state":"岩手県","shopFlg":false,"name":"自家焙煎珈琲＆Bar バロック","phone_number":"090-9842-0739","address":"岩手県盛岡市中ノ橋通1-10-5 さかしたビル2F","latitude":"39.699572","longitude":"141.156627"},{"state":"秋田県","shopFlg":false,"name":"Herbal Cafe PRANA","phone_number":"018-863-2286","address":"秋田県秋田市泉中央4-14-27","latitude":"39.734687","longitude":"140.116251"},{"state":"秋田県","shopFlg":false,"name":"酉家 美呑里 (とりやのみり)","phone_number":"050-3623-7027","address":"秋田県秋田市大町4-3-7 赤レンガ郷土館側すずらん通り2区","latitude":"39.716306","longitude":"140.115651"},{"state":"山形県","shopFlg":false,"name":"“買えるお店” 正酒屋六根浄","phone_number":"023-666-8977","address":"山形県山形市平清水153","latitude":"38.230017","longitude":"140.346599"},{"state":"宮城県","shopFlg":false,"name":"月うさぎ","phone_number":"022-263-3577","address":"宮城県仙台市青葉区国分町3-2-5 ゼロキュービル4F","latitude":"38.265986","longitude":"140.868918"},{"state":"新潟県","shopFlg":false,"name":"BISTRO BOULEAU BLANC","phone_number":"0258-34-9486","address":"新潟県長岡市殿町3-2-14 ニュー白樺ビル１Ｆ","latitude":"37.446323","longitude":"138.848333"},{"state":"新潟県","shopFlg":false,"name":"カフェ・プルミエ","phone_number":"025-233-6890","address":"新潟県新潟市西区青山1-4-2","latitude":"37.8927","longitude":"139.00133"},{"state":"新潟県","shopFlg":true,"name":"清水酒店","phone_number":"025-222-2782","address":"新潟県新潟市中央区礎町通り２ノ町２０８２","latitude":"37.904006","longitude":"139.037648"},{"state":"新潟県","shopFlt":true,"name":"スーパーヴイ　本店","phone_number":"025-284-2550","address":"新潟県新潟市中央区鳥屋野４１７－１","latitude":"37.885024","longitude":"139.034972"},{"state":"埼玉県","shopFlg":false,"name":"小麦市場","phone_number":"049-228-0800","address":"埼玉県川越市福田59-1","latitude":"35.951877","longitude":"139.473258"},{"state":"埼玉県","shopFlg":false,"name":"和創菜と四季のすし 風凛 furin","phone_number":"049-222-0231","address":"埼玉県川越市仲町6-4","latitude":"35.921423","longitude":"139.482566"},{"state":"埼玉県","shopFlg":false,"name":"ASIAN FRENCH DINING 味市場","phone_number":"048-683-4773","address":"埼玉県さいたま市見沼区大和田1-192","latitude":"35.918391","longitude":"139.646664"},{"state":"埼玉県","shopFlg":false,"name":"川越アートカフェ カフェ エレバート","phone_number":"049-222-0241","address":"埼玉県川越市仲町6-4","latitude":"35.921423","longitude":"139.482566"},{"state":"埼玉県","shopFlg":false,"name":"和じあんDiningなかなか川越西口店","phone_number":"049-248-1362","address":"埼玉県川越市脇田本町14-37 Mビル2F","latitude":"35.90707","longitude":"139.481401"},{"state":"埼玉県","shopFlg":false,"name":"ばぁーぐばーぐ","phone_number":"049-226-0010","address":"埼玉県川越市新富町2-23-3","latitude":"35.91338","longitude":"139.481966"},{"state":"埼玉県","shopFlg":false,"name":"地もの海ものなかなかクレアモール店","phone_number":"049-227-8778","address":"埼玉県川越市脇田町12-19","latitude":"35.910969","longitude":"139.482897"},{"state":"埼玉県","shopFlg":false,"name":"チャフーンChafoon","phone_number":"048-822-0066","address":"埼玉県さいたま市浦和区高砂2-7-7 セブンビル2F","latitude":"35.858544","longitude":"139.655074"},{"state":"埼玉県","shopFlg":false,"name":"ぶっちょ","phone_number":"048-834-7007","address":"埼玉県さいたま市浦和区高砂２丁目８−８","latitude":"35.858541","longitude":"139.654548"},{"state":"埼玉県","shopFlg":false,"name":"鶏匠比内や宮町店","phone_number":"048-642-0023","address":"埼玉県さいたま市大宮区宮町1-70","latitude":"35.907554","longitude":"139.625676"},{"state":"埼玉県","shopFlg":false,"name":"鶏匠比内や仲町店","phone_number":"048-644-9191","address":"埼玉県さいたま市大宮区仲町1-60","latitude":"35.905137","longitude":"139.625885"},{"state":"埼玉県","shopFlg":false,"name":"小江戸蔵里　大正蔵","phone_number":"049-228-1785","address":"埼玉県川越市新富町1-10-1","latitude":"35.916116","longitude":"139.483835"},{"state":"埼玉県","shopFlg":false,"name":"地産地消の和風ダイニング彩丸","phone_number":"048-824-4900","address":"埼玉県さいたま市浦和区仲町1-10-21 アリーナビル2F","latitude":"35.859286","longitude":"139.65581"},{"state":"埼玉県","shopFlg":false,"name":"埼玉の地酒処 うりんぼう","phone_number":"048-831-5650","address":"埼玉県さいたま市浦和区高砂1-5-9 2F","latitude":"35.857674","longitude":"139.657228"},{"state":"埼玉県","shopFlg":false,"name":"Dining Bar neiro 音色","phone_number":"048-653-7289","address":"埼玉県さいたま市北区宮原町3-279-2","latitude":"35.938951","longitude":"139.610977"},{"state":"埼玉県","shopFlg":false,"name":"新鮮地場野菜と地酒 自家製うどん 縁尽","phone_number":"048-779-8980","address":"埼玉県さいたま市大宮区桜木町2丁目297-3桜ﾋﾞﾙ1Ｆ","latitude":"35.905168","longitude":"139.62082"},{"state":"埼玉県","shopFlg":false,"name":"甘味黒豚と彩の国地酒 黒豚劇場 川越入り口店","phone_number":"049-226-8899","address":"埼玉県川越市脇田町17‐4 川越ニューシティホテル2F","latitude":"35.908786","longitude":"139.482642"},{"state":"埼玉県","shopFlg":false,"name":"大宮 すし 風凛","phone_number":"048-649-4106","address":"埼玉県さいたま市大宮区下町1-40-11","latitude":"35.903501","longitude":"139.62714"},{"state":"埼玉県","shopFlg":false,"name":"太陽軒","phone_number":"049-222-0259","address":"埼玉県川越市元町1丁目1-1","latitude":"35.924101","longitude":"139.484565"},{"state":"埼玉県","shopFlg":false,"name":"アクスティ","phone_number":"049-287-9191","address":"埼玉県鶴ヶ島市松ヶ丘1丁目1-12","latitude":"35.928978","longitude":"139.416537"},{"state":"埼玉県","shopFlg":false,"name":"酒亭えぶり","phone_number":"070-5550-5516","address":"埼玉県蕨市中央3-2-1","latitude":"35.827648","longitude":"139.687924"},{"state":"埼玉県","shopFlg":false,"name":"ダイニングバー Katsu","phone_number":"048-927-7789","address":"埼玉県草加市高砂2-7-1 アコス南館3F","latitude":"35.827959","longitude":"139.804596"},{"state":"埼玉県","shopFlg":false,"name":"うなっ子","phone_number":"049-228-0567","address":"埼玉県川越市元町2丁目10-6","latitude":"35.924087","longitude":"139.481691"},{"state":"埼玉県","shopFlg":false,"name":"酒場言葉","phone_number":"048-641-7071","address":"埼玉県さいたま市大宮区堀の内町1丁目113","latitude":"35.907792","longitude":"139.635681"},{"state":"埼玉県","shopFlg":false,"name":"古民家囲酒屋 酒菜家","phone_number":"048-607-0378","address":"埼玉県さいたま市南区南浦和2-40-3 第2大井ビル1F","latitude":"35.848379","longitude":"139.671378"},{"state":"埼玉県","shopFlg":false,"name":"路地裏食堂 たけぞう","phone_number":"048-657-1727","address":"埼玉県さいたま市大宮区大門町2‐28第一松ビル1F","latitude":"35.907799","longitude":"139.627258"},{"state":"埼玉県","shopFlg":false,"name":"ホテルえすぽわーる伊佐沼 翔風彩","phone_number":"049-224-3210","address":"埼玉県川越市大字伊佐沼667-2","latitude":"35.924335","longitude":"139.51268"},{"state":"埼玉県","shopFlg":false,"name":"ビアザウルス 本川越店","phone_number":"049-227-1701","address":"埼玉県川越市新富町2-7-5 花田ビル2F","latitude":"35.912484","longitude":"139.482497"},{"state":"埼玉県","shopFlg":false,"name":"なかなか","phone_number":"049-223-2062","address":"埼玉県川越市新富町1-2-4 ホンダ壱番館ビル5F","latitude":"35.915618","longitude":"139.482707"},{"state":"埼玉県","shopFlg":false,"name":"五臓六腑","phone_number":"049-282-3688","address":"埼玉県坂戸市日の出町14-3　 T","latitude":"35.957661","longitude":"139.393923"},{"state":"埼玉県","shopFlg":false,"name":"ライトニングカフェ","phone_number":"049-225-4776","address":"埼玉県川越市幸町15-21 2F","latitude":"35.923595","longitude":"139.483816"},{"state":"埼玉県","shopFlg":false,"name":"ASIAN FRENCH 蓮田 AJI ICHIBA","phone_number":"048-765-0077","address":"埼玉県蓮田市本町3-5 蓮田オークプラザ駅前温泉館1F","latitude":"35.980263","longitude":"139.651865"},{"state":"埼玉県","shopFlg":true,"name":"丸広百貨店川越店","phone_number":"049-224-1111","address":"埼玉県川越市新富町2-6-1","latitude":"35.912877","longitude":"139.483205"},{"state":"埼玉県","shopFlg":false,"name":"そごう大宮店","phone_number":"048-646-2111","address":"埼玉県さいたま市大宮区桜木町1-6-2","latitude":"35.904721","longitude":"139.622018"},{"state":"埼玉県","shopFlg":false,"name":"西武所沢店","phone_number":"04-2927-0111","address":"埼玉県所沢市日吉町12-1","latitude":"35.786571","longitude":"139.472024"},{"state":"埼玉県","shopFlg":false,"name":"海鮮と手打ちそば たびと","phone_number":"048-472-2893","address":"埼玉県新座市東北2丁目30-26","latitude":"35.82091","longitude":"139.573287"},{"state":"埼玉県","shopFlg":true,"name":"舛屋酒店","phone_number":"049-222-1500","address":"埼玉県川越市大手町14-3","latitude":"35.923342","longitude":"139.483754"},{"state":"埼玉県","shopFlg":true,"name":"大丸浦和パルコ店","phone_number":"048-615-6000","address":"埼玉県さいたま市浦和区東高砂町11-1","latitude":"35.858658","longitude":"139.658978"},{"state":"埼玉県","shopFlg":true,"name":"熊重酒店","phone_number":"049-222-0053","address":"埼玉県川越市幸町8-1","latitude":"35.923504","longitude":"139.483066"},{"state":"埼玉県","shopFlg":true,"name":"八木橋百貨店","phone_number":"048-523-1111","address":"埼玉県熊谷市仲町74","latitude":"36.145998","longitude":"139.382037"},{"state":"埼玉県","shopFlg":true,"name":"アトレ川越","phone_number":"049-226-1111","address":"埼玉県川越市脇田町105","latitude":"35.908514","longitude":"139.482891"},{"state":"埼玉県","shopFlg":true,"name":"マルイファミリー志木","phone_number":"048-487-0101","address":"埼玉県志木市本町5-26-1","latitude":"35.823377","longitude":"139.574168"},{"state":"埼玉県","shopFlg":true,"name":"丸広百貨店南浦和店","phone_number":"048-865-1111","address":"埼玉県さいたま市南区南本町1-7-4","latitude":"35.846406","longitude":"139.667467"},{"state":"埼玉県","shopFlg":true,"name":"丸広百貨店上尾店","phone_number":"048-777-1111","address":"埼玉県上尾市宮本町1-1","latitude":"35.973211","longitude":"139.589609"},{"state":"埼玉県","shopFlg":true,"name":"キングショップ誠屋","phone_number":"049-285-8311","address":"埼玉県鶴ヶ島市富士見2-18-14","latitude":"35.950549","longitude":"139.413812"},{"state":"埼玉県","shopFlg":true,"name":"山武商店 よしのや","phone_number":"049-251-7604","address":"埼玉県富士見市関沢2-25-53","latitude":"35.840985","longitude":"139.537356"},{"state":"埼玉県","shopFlg":false,"name":"KAISEKI 鉄板 寿An","phone_number":"048-687-1121","address":"埼玉県さいたま市見沼区大和田町1丁目700","latitude":"35.921577","longitude":"139.649666"},{"state":"埼玉県","shopFlg":false,"name":"はっ鳥半蔵","phone_number":"048-281-8680","address":"埼玉県川口市本蓮2丁目19-13","latitude":"35.819054","longitude":"139.762876"},{"state":"埼玉県","shopFlg":true,"name":"伊勢源","phone_number":"049-222-0050","address":"埼玉県川越市仲町3-20(大正浪漫夢通り)","latitude":"35.920726","longitude":"139.483199"},{"state":"埼玉県","shopFlg":false,"name":"きこり亭","phone_number":"048-866-6865","address":"埼玉県さいたま市南区文蔵4-15-17","latitude":"35.83764","longitude":"139.670303"},{"state":"埼玉県","shopFlg":false,"name":"宮崎焼鳥もも焼き屋一仁","phone_number":"070-6489-4129","address":"埼玉県川越市新富町１丁目１９－１","latitude":"35.914402","longitude":"139.482963"},{"state":"埼玉県","shopFlg":true,"name":"food stage KITANO エキュート大宮店","phone_number":"048-640-1940","address":"埼玉県さいたま市大宮区錦町630JR東日本大宮駅構内","latitude":"35.906255","longitude":"139.624323"},{"state":"埼玉県","shopFlg":false,"name":"Mio Casalo 蔵のまち店","phone_number":"049-222-2861","address":"埼玉県川越市元町１丁目15－3","latitude":"35.924556","longitude":"139.483188"},{"state":"埼玉県","shopFlg":false,"name":"ビストロやま","phone_number":"048-854-1170","address":"埼玉県さいたま市中央区上峰3-15-1 彩の国さいたま芸術劇場内","latitude":"35.874958","longitude":"139.62125"},{"state":"埼玉県","shopFlg":false,"name":"ペペロネ美術館","phone_number":"048-834-5222","address":"埼玉県さいたま市浦和区常盤9－30－1　埼玉県立近代美術館内","latitude":"35.865959","longitude":"139.647712"},{"state":"埼玉県","shopFlg":false,"name":"ペペロネカフェ","phone_number":"090-4374-1170","address":"埼玉県さいたま市中央区上峰３丁目１５－１彩の国さいたま芸術劇場内","latitude":"35.944975","longitude":"139.646737"},{"state":"埼玉県","shopFlg":false,"name":"豚しゃぶ ぶたのしっぽ","phone_number":"048-644-3393","address":"埼玉県さいたま市大宮区宮町２丁目８-３ 第９松ビル ２Ｆ","latitude":"35.909672","longitude":"139.626828"},{"state":"埼玉県","shopFlg":false,"name":"ビアザウルス TUSK","phone_number":"049-226-0078","address":"埼玉県川越市菅原町5-21 郷土開発ビル2・3F","latitude":"35.908017","longitude":"139.485863"},{"state":"埼玉県","shopFlg":true,"name":"田島屋","phone_number":"048-251-5731","address":"埼玉県川口市青木4-9-16","latitude":"35.8153","longitude":"139.723776"},{"state":"埼玉県","shopFlg":false,"name":"酒飯房 巌窟屋","phone_number":"049-255-9066","address":"埼玉県富士見市鶴馬2602-2 西興西口ビルB1","latitude":"35.845954","longitude":"139.538083"},{"state":"埼玉県","shopFlg":false,"name":"手のべうどん たけ山","phone_number":"048-477-3350","address":"埼玉県新座市野火止１丁目２３−１","latitude":"35.791661","longitude":"139.563808"},{"state":"埼玉県","shopFlg":false,"name":"黒豚共和国ひびきクレアパーク店","phone_number":"049-225-8533","address":"埼玉県川越市脇田町12-1","latitude":"35.910911","longitude":"139.482833"},{"state":"埼玉県","shopFlg":false,"name":"洋食酒場ペネロペ","phone_number":"048-871-9400","address":"埼玉県上尾市柏座1-1-30","latitude":"35.974761","longitude":"139.587756"},{"state":"埼玉県","shopFlg":false,"name":"CRAFT BEER BABY !","phone_number":"048-705-3000","address":"埼玉県さいたま市浦和区高砂2-8-9 ナカギンザビル","latitude":"35.858541","longitude":"139.654548"},{"state":"埼玉県","shopFlg":false,"name":"WIRED KITCHEN 川越アトレマルヒロ店","phone_number":"049-227-5212","address":"埼玉県川越市脇田町105アトレマルヒロ３F","latitude":"35.908425","longitude":"139.48294"},{"state":"埼玉県","shopFlg":true,"name":"柳屋酒店","phone_number":"049-222-1157　","address":"埼玉県川越市志多町２－１","latitude":"35.927389","longitude":"139.484115"},{"state":"埼玉県","shopFlg":false,"name":"和風居酒屋 一彩","phone_number":"048-822-6630","address":"埼玉県さいたま市浦和区高砂2-6-22","latitude":"35.857888","longitude":"139.655181"},{"state":"埼玉県","shopFlg":false,"name":"カフェタマ","phone_number":"050-3797-3178","address":"埼玉県さいたま市大宮区吉敷町4-57-3 さいたま新都心駅改札外","latitude":"35.895464","longitude":"139.634487"},{"state":"東京都","shopFlg":false,"name":"Beer Cuisine GOSHIKI Roppongi","phone_number":"03-3405-4480","address":"東京港区六本木6－1－6 B1","latitude":"35.675804","longitude":"139.735722"},{"state":"東京都","shopFlg":false,"name":"wanoba","phone_number":"03-5424-0610","address":"東京都渋谷区恵比寿3-1-1","latitude":"35.645468","longitude":"139.71665"},{"state":"東京都","shopFlg":false,"name":"EBISU Cabriolet","phone_number":"03-5704-6612","address":"渋谷区恵比寿南1-13-11","latitude":"35.645771","longitude":"139.710173"},{"state":"東京都","shopFlg":false,"name":"フォーコドルチェ","phone_number":"03-3267-9668","address":"東京都新宿区市谷左内町11 市ヶ谷左内坂ハイム2F","latitude":"35.69342","longitude":"139.734108"},{"state":"東京都","shopFlg":false,"name":"セニョールどいちゃん","phone_number":"03-5778-0474","address":"東京都港区南青山1-1-1新青山ビルB1F","latitude":"35.672721","longitude":"139.725473"},{"state":"東京都","shopFlg":false,"name":"やきとりひびき庵深川住吉駅店","phone_number":"03-3633-3969","address":"東京都江東区住吉２丁目２４−７","latitude":"35.688877","longitude":"139.815938"},{"state":"東京都","shopFlg":false,"name":"Kaion701","phone_number":"03-6435-0414","address":"東京都港区麻布十番2-8-8麻布十番ミレニアムタワー7F","latitude":"35.655404","longitude":"139.734568"},{"state":"東京都","shopFlg":false,"name":"Tas Yard","phone_number":"03-3470-3940","address":"東京都渋谷区千駄ヶ谷3-3-14 メゾンブランシュ101","latitude":"35.675558","longitude":"139.705697"},{"state":"東京都","shopFlg":false,"name":"麹町カフェ","phone_number":"03-3237-3434","address":"東京都千代田区麹町1-5-4 1F","latitude":"35.683562","longitude":"139.742096"},{"state":"東京都","shopFlg":false,"name":"tomatoma","phone_number":"03-5845-3669","address":"東京都足立区中央本町1-19-22","latitude":"35.775731","longitude":"139.80377"},{"state":"東京都","shopFlg":false,"name":"N-park","phone_number":"03-6452-4122","address":"東京都渋谷区恵比寿南1-21-20 EN恵比寿ビル1F","latitude":"35.645055","longitude":"139.709444"},{"state":"東京都","shopFlg":false,"name":"Blue Note Tokyo","phone_number":"03-5485-0088","address":"東京都港区南青山6-3-16 ライカビル","latitude":"35.661214","longitude":"139.71623"},{"state":"東京都","shopFlg":false,"name":"レストランバー アミューズメント","phone_number":"03-3464-7971","address":"東京都渋谷区桜丘町2-9　カスヤビルＢ１","latitude":"35.657087","longitude":"139.701309"},{"state":"東京都","shopFlg":false,"name":"EORNA","phone_number":"03-5379-5576","address":"東京都新宿区新宿3-11-1　今井ビルB1F","latitude":"35.691058","longitude":"139.761257"},{"state":"東京都","shopFlg":false,"name":"目黒REPUBLIC","phone_number":"03-3441-6181","address":"東京都品川区上大崎3-3-1　オバタビルB1","latitude":"35.633764","longitude":"139.717766"},{"state":"東京都","shopFlg":false,"name":"八十八夜","phone_number":"0422-24-9490","address":"東京都武蔵野市御殿山1-2-1","latitude":"35.702511","longitude":"139.576779"},{"state":"東京都","shopFlg":false,"name":"THE SOUL OF SEOUL","phone_number":"03-5778-3896","address":"東京都渋谷区渋谷1-2-5","latitude":"35.661708","longitude":"139.70665"},{"state":"東京都","shopFlg":false,"name":"銀幕ロック","phone_number":"03-5828-6969","address":"東京都台東区浅草1-41-5 峠ビル2F","latitude":"35.713141","longitude":"139.793775"},{"state":"東京都","shopFlg":false,"name":"岡永倶楽部","phone_number":"03-3663-2800","address":"東京都中央区日本橋馬喰町1-7-3","latitude":"35.693384","longitude":"139.781666"},{"state":"東京都","shopFlg":false,"name":"セルジオストロベリー","phone_number":"03-3829-8228","address":"東京都墨田区錦糸4-6-7","latitude":"35.697626","longitude":"139.815804"},{"state":"東京都","shopFlg":false,"name":"SODO","phone_number":"03-3428-8007","address":"東京都世田谷区世田谷2-14-3","latitude":"35.64185","longitude":"139.644365"},{"state":"東京都","shopFlg":false,"name":"東京ファミリーレストラン","phone_number":"03-3797-3355","address":"東京都渋谷区東1-3-1 カミニート20 3F","latitude":"35.657614","longitude":"139.708239"},{"state":"東京都","shopFlg":false,"name":"D&Department","phone_number":"03-5752-0120","address":"東京都世田谷区奥沢8-3-2","latitude":"35.602336","longitude":"139.658309"},{"state":"東京都","shopFlg":false,"name":"瑞祥 ZUISHO","phone_number":"03-6459-0940","address":"東京都港区芝大門1-15-9 芝大門ワンダービルB1","latitude":"35.657153","longitude":"139.753918"},{"state":"東京都","shopFlg":false,"name":"Cafe Haus","phone_number":"03-5534-8025","address":"東京都江東区豊洲2-1-9","latitude":"35.656572","longitude":"139.793855"},{"state":"東京都","shopFlg":false,"name":"A971","phone_number":"03-5413-3210","address":"東京都港区赤坂9-7-2 東京ミッドタウン ミッドタウン・イースト1F","latitude":"35.665914","longitude":"139.73094"},{"state":"東京都","shopFlg":false,"name":"イタリア料理　Y","phone_number":"03-3786-5005","address":"東京都品川区小山5-18-17","latitude":"35.615849","longitude":"139.700622"},{"state":"東京都","shopFlg":false,"name":"bar chair","phone_number":"03-3545-0897","address":"東京都中央区銀座 4-10-1 ソカロ銀座8階","latitude":"35.670712","longitude":"139.767584"},{"state":"東京都","shopFlg":false,"name":"nanaha 草","phone_number":"03-3718-0300","address":"東京都目黒区自由が丘2-9-15","latitude":"35.609385","longitude":"139.667644"},{"state":"東京都","shopFlg":false,"name":"TAKI Japanese Beer & Sake Dining","phone_number":"03-3780-0656","address":"東京都渋谷区桜丘町17-12　渋谷ジョンソンビル3F","latitude":"35.656145","longitude":"139.701329"},{"state":"東京都","shopFlg":false,"name":"創作料理 四谷 YAMAZAKI","phone_number":"03-3358-8698","address":"東京都新宿区四谷3-13-20","latitude":"35.687536","longitude":"139.718917"},{"state":"東京都","shopFlg":false,"name":"bar Olim 宇田川町","phone_number":"03-5458-1862","address":"東京都渋谷区宇田川町33-10","latitude":"35.660983","longitude":"139.69669"},{"state":"東京都","shopFlg":false,"name":"Snooty Fox","phone_number":"03-3406-6050","address":"東京都渋谷区渋谷3-17-1 第2鈴木ビルB1","latitude":"35.659367","longitude":"139.708549"},{"state":"東京都","shopFlg":false,"name":"YumeXTime Cafe","phone_number":"042-507-9435","address":"東京都国立市東1-15-1 吉村ビル2階","latitude":"35.696904","longitude":"139.448646"},{"state":"東京都","shopFlg":false,"name":"Bar Fill Up","phone_number":"03-6908-6464","address":"東京都新宿区西新宿7-22-44","latitude":"35.695426","longitude":"139.695795"},{"state":"東京都","shopFlg":false,"name":"Vinsanto","phone_number":"03-3464-4641","address":"東京都渋谷区恵比寿西2-1-7","latitude":"35.649432","longitude":"139.708248"},{"state":"東京都","shopFlg":false,"name":"鰻いづもや","phone_number":"03-3241-2476","address":"東京都中央区日本橋本石町3-3-4","latitude":"35.687704","longitude":"139.770972"},{"state":"東京都","shopFlg":true,"name":"東急百貨店渋谷駅東横店","phone_number":"03-3477-3111","address":"東京都渋谷区渋谷2-24-1","latitude":"35.659083","longitude":"139.701734"},{"state":"東京都","shopFlg":true,"name":"西武池袋本店","phone_number":"03-3981-0111","address":"東京都豊島区南池袋1-28-1","latitude":"35.728573","longitude":"139.711744"},{"state":"東京都","shopFlg":false,"name":"レストラン ファイアーママ","phone_number":"03-5496-8178","address":"東京都品川区西五反田1-32-3 DAIビル1ー2F","latitude":"35.624127","longitude":"139.721572"},{"state":"東京都","shopFlg":false,"name":"THE BROSELEY","phone_number":"03-6907-4505","address":"東京都豊島区南大塚3-34-11 運正ビル1F","latitude":"35.731104","longitude":"139.728131"},{"state":"東京都","shopFlg":false,"name":"Shot Bar Vane","phone_number":"03-3929-8168","address":"東京都練馬区関町北4-3-1　房田ビル2F","latitude":"35.728028","longitude":"139.57709"},{"state":"東京都","shopFlg":false,"name":"カフェダイニング・ウルスラ","phone_number":"03-6233-8077","address":"東京都新宿区高田馬場1-29-21　みかどビルディング1階","latitude":"35.710445","longitude":"139.704161"},{"state":"東京都","shopFlg":false,"name":"Beer & Wine Cafe 65","phone_number":"03-6450-4665","address":"東京都品川区上大崎2丁目16番1号 目黒開発ビルB1F","latitude":"35.634829","longitude":"139.715762"},{"state":"東京都","shopFlg":false,"name":"factory","phone_number":"03-6419-7739","address":"東京都渋谷区渋谷2-8-7　青山宮野ビル1F","latitude":"35.660396","longitude":"139.707273"},{"state":"東京都","shopFlg":true,"name":"国分寺マルイ","phone_number":"042-323-0101","address":"東京都国分寺市南町3-20-3","latitude":"35.699798","longitude":"139.480399"},{"state":"東京都","shopFlg":false,"name":"一之江 すし初","phone_number":"03-3652-2704","address":"東京都江戸川区江戸川4-25-7","latitude":"35.678872","longitude":"139.882826"},{"state":"東京都","shopFlg":true,"name":"北千住マルイ","phone_number":"03-5244-0101","address":"東京都足立区千住3-92","latitude":"35.750832","longitude":"139.80475"},{"state":"東京都","shopFlg":false,"name":"Congrats Cafe","phone_number":"03-5275-1701","address":"東京都千代田区飯田橋3-2-6","latitude":"35.700791","longitude":"139.748245"},{"state":"東京都","shopFlg":false,"name":"薬膳カレー香食楽KA・KU・RA","phone_number":"03-3710-0299","address":"東京都目黒区上目黒2-42-13","latitude":"35.640971","longitude":"139.695183"},{"state":"東京都","shopFlg":false,"name":"ザ・グレート・バーガー THE GREAT BURGER","phone_number":"03-3406-1215","address":"東京都渋谷区神宮前6-12-7 Ｊ－ＣＵＢＥＡー１Ｆ","latitude":"35.666072","longitude":"139.70444"},{"state":"東京都","shopFlg":false,"name":"cafe Hohokam (cafe Hohokam)","phone_number":"03-5775-5708","address":"東京都渋谷区神宮前3-22-14 B棟ー2Ｆ","latitude":"35.670299","longitude":"139.707331"},{"state":"東京都","shopFlg":false,"name":"Burger Mania","phone_number":"03-3442-2200","address":"東京都港区白金6-5-7","latitude":"35.64433","longitude":"139.725394"},{"state":"東京都","shopFlg":true,"name":"ル・ジャンボン東大泉本店","phone_number":"03-3922-8486","address":"東京都練馬区東大泉7-38-29","latitude":"35.746876","longitude":"139.581105"},{"state":"東京都","shopFlg":true,"name":"東武百貨店池袋店","phone_number":"03-3981-2211","address":"東京都豊島区西池袋1-1-25","latitude":"35.730342","longitude":"139.710564"},{"state":"東京都","shopFlg":false,"name":"東京ビアホール＆ビアテラス14","phone_number":"03-6269-9585","address":"東京都千代田区丸の内1-4-1 iiyo!!2F","latitude":"35.685039","longitude":"139.76574"},{"state":"東京都","shopFlg":false,"name":"Khaosan Bar Hanabi カオサンバー花火","phone_number":"03-6658-8130","address":"東京都墨田区吾妻橋1-4-3","latitude":"35.708033","longitude":"139.800697"},{"state":"東京都","shopFlg":true,"name":"伊勢兼商店","phone_number":"03-3203-2171","address":"東京都新宿区西早稲田3-19-1","latitude":"35.710711","longitude":"139.71242"},{"state":"東京都","shopFlg":false,"name":"うどん屋てんてこ","phone_number":"03-3330-3003","address":"東京都杉並区高円寺北2-22-11","latitude":"35.707862","longitude":"139.649823"},{"state":"東京都","shopFlg":false,"name":"ハラカラ","phone_number":"03-6323-1760","address":"東京都世田谷区三軒茶屋２－１６－８","latitude":"35.642854","longitude":"139.667435"},{"state":"東京都","shopFlg":false,"name":"東京ワイン酒場　AGEMAKI","phone_number":"03-6450-7329","address":"東京都世田谷区三軒茶屋1-35-17 ルーエプラッツ三軒茶屋2f","latitude":"35.643004","longitude":"139.672375"},{"state":"東京都","shopFlg":true,"name":"鈴大商店","phone_number":"03-3911-1298","address":"東京都北区豊島３-７-１９","latitude":"35.761148","longitude":"139.745632"},{"state":"東京都","shopFlg":true,"name":"リカーショップあさみ","phone_number":"042-321-0175","address":"東京都国分寺市本多1-8-4","latitude":"35.704983","longitude":"139.482904"},{"state":"東京都","shopFlg":true,"name":"あさみ酒店 おため酒や","phone_number":"０４２－３２５－２６０６","address":"東京都国分寺市本町３－４－７　武蔵ビル１F　","latitude":"35.701258","longitude":"139.479486"},{"state":"東京都","shopFlg":false,"name":"76vin(ナナジュウロクバン）","phone_number":"03-5834-7684","address":"東京都文京区根津2-13-8","latitude":"35.718217","longitude":"139.76581"},{"state":"東京都","shopFlg":true,"name":"鈴木酒販","phone_number":"03-3802-8752","address":"東京都台東区根岸5丁目25-2","latitude":"35.730648","longitude":"139.791263"},{"state":"東京都","shopFlg":false,"name":"SICON","phone_number":"03-3216-4728","address":"東京都千代田区有楽町1-12-1　新有楽町ビルB1","latitude":"35.675536","longitude":"139.761854"},{"state":"東京都","shopFlg":false,"name":"NAVEL","phone_number":"03-5340-5808","address":"東京都中野区中野2-30-8 B1","latitude":"35.70403","longitude":"139.66589"},{"state":"東京都","shopFlg":false,"name":"Paxi House Tokyo パクチーハウス東京","phone_number":"03-6310-0355","address":"東京都世田谷区経堂1-25-18 2F","latitude":"35.648916","longitude":"139.635857"},{"state":"東京都","shopFlg":false,"name":"黒豚劇場ひびき 東京国際フォーラム店","phone_number":"03-3213-1533","address":"東京都千代田区丸の内3-5-1　東京国際フォーラムB1","latitude":"35.676998","longitude":"139.763531"},{"state":"東京都","shopFlg":false,"name":"御茶ノ水ビアホール","phone_number":"050-5798-1086","address":"東京都千代田区神田駿河台2-4-4 B1","latitude":"35.69952","longitude":"139.763383"},{"state":"東京都","shopFlg":false,"name":"cafe dining bar SOL","phone_number":"03-6806-2507","address":"東京都足立区千住3-55 2F","latitude":"35.751226","longitude":"139.803469"},{"state":"東京都","shopFlg":false,"name":"福兆","phone_number":"050-5798-1467","address":"東京都千代田区神田神保町1-1-17　東京堂神保町第三ビルB1","latitude":"35.695509","longitude":"139.760276"},{"state":"東京都","shopFlg":false,"name":"Chanbow","phone_number":"03-6240-6412","address":"東京都台東区浅草5-47-10 A&Aビル1F","latitude":"35.720651","longitude":"139.799591"},{"state":"東京都","shopFlg":false,"name":"KRAFTWORK 万事快調","phone_number":"03-6907-3899","address":"東京都豊島区東池袋 1-47-5","latitude":"35.733456","longitude":"139.715588"},{"state":"東京都","shopFlg":false,"name":"炭火焼鳥けん","phone_number":"03-3706-1655","address":"東京都世田谷区桜丘2-29-20 第二稲荷ビル１Ｆ","latitude":"35.646794","longitude":"139.624509"},{"state":"東京都","shopFlg":false,"name":"カフェジーニョ","phone_number":"042-304-8800","address":"東京都国分寺市本町2-15-7 HOUSEアメニティ3ー1F","latitude":"35.711513","longitude":"139.45538"},{"state":"東京都","shopFlg":false,"name":"季節料理和季 (やわらぎ）","phone_number":"03-3959-6171","address":"東京都豊島区千早4-26-14　ハイムノブレス101","latitude":"35.737747","longitude":"139.68595"},{"state":"東京都","shopFlg":false,"name":"Oasis","phone_number":"03-3252-5020","address":"東京都千代田区内神田3-5-2 小幡ビル２F","latitude":"35.690557","longitude":"139.769192"},{"state":"東京都","shopFlg":false,"name":"Cafe Hakuta","phone_number":"03-5876-9085","address":"東京都葛飾区東金町1-27-11　シラユリビル101","latitude":"35.771958","longitude":"139.869426"},{"state":"東京都","shopFlg":false,"name":"kurukku JINGUMAE","phone_number":"03-5414-0581","address":"東京都渋谷区神宮前2-18-15","latitude":"35.672923","longitude":"139.709678"},{"state":"神奈川県","shopFlg":false,"name":"Travel Cruise Bar Mirai","phone_number":"045-326-6475","address":"横浜市中区吉田町2-7","latitude":"35.445444","longitude":"139.633298"},{"state":"神奈川県","shopFlg":false,"name":"鎌倉山ARCADIA","phone_number":"0467-84-9076","address":"神奈川県鎌倉市鎌倉山3-15-13","latitude":"35.321866","longitude":"139.514534"},{"state":"神奈川県","shopFlg":false,"name":"Sage cafe","phone_number":"042-687-5336","address":"神奈川県相模原市緑区日連714","latitude":"35.611241","longitude":"139.158211"},{"state":"神奈川県","shopFlg":false,"name":"Wine Bar Cyama","phone_number":"045-548-9745","address":"神奈川県横浜市西区岡野1-4-5　中澤ビル1F","latitude":"35.46056","longitude":"139.615108"},{"state":"神奈川県","shopFlg":false,"name":"Bar ビジャポン","phone_number":"045-243-2121","address":"横浜市中区宮川町2-28 前田ビル1階","latitude":"35.49397","longitude":"139.592486"},{"state":"神奈川県","shopFlg":false,"name":"火炭鳥炉","phone_number":"045-350-4482","address":"横浜市青葉区青葉台1-15-14 リッチハイム青葉台2F","latitude":"35.547344","longitude":"139.517242"},{"state":"千葉県","shopFlg":false,"name":"南欧創作キッチン Pee Ka Boo","phone_number":"04-7164-5995","address":"千葉県柏市柏3-7-19早川ビル1F","latitude":"35.777047","longitude":"139.887016"},{"state":"千葉県","shopFlg":false,"name":"Shot Bar Wel","phone_number":"047-426-7322","address":"千葉県船橋市本町5-11-5","latitude":"35.702785","longitude":"139.988301"},{"state":"千葉県","shopFlg":false,"name":"ラ・シェット","phone_number":"047-476-6619","address":"千葉県習志野市谷津7-8-7","latitude":"35.691131","longitude":"140.018504"},{"state":"千葉県","shopFlg":true,"name":"原田屋","phone_number":"047-395-2260","address":"千葉県市川市行徳駅前2-9-2","latitude":"35.680767","longitude":"139.916026"},{"state":"千葉県","shopFlg":false,"name":"Beer & Wine JACK酒場　本八幡店","phone_number":"047-378-1881","address":"千葉県市川市南八幡3-5-5","latitude":"35.720292","longitude":"139.928044"},{"state":"栃木県","shopFlg":false,"name":"ダイニングバー・ウニコ","phone_number":"0287-65-5545","address":"那須塩原市大原間西1丁目13-13","latitude":"36.930503","longitude":"140.016478"},{"state":"栃木県","shopFlg":true,"name":"嶋田屋酒店","phone_number":"0289-62-2590","address":"栃木県鹿沼市西茂呂3-58-1","latitude":"36.546539","longitude":"139.771314"},{"state":"群馬県","shopFlg":false,"name":"塩河原温泉 美人の湯　渓山荘","phone_number":"0278-52-2236","address":"群馬県利根郡川場村門前 2532-3","latitude":"36.693758","longitude":"139.095763"},{"state":"群馬県","shopFlg":false,"name":"仲沢酒店","phone_number":"027-323-1621","address":"群馬県高崎市八千代町1-12-4","latitude":"36.32087","longitude":"138.992114"},{"state":"静岡県","shopFlg":false,"name":"カクタスハウス","phone_number":"054-635-6403","address":"静岡県藤枝市高洲25-7","latitude":"34.835946","longitude":"138.264028"},{"state":"静岡県","shopFlg":false,"name":"Bar Mag Mell","phone_number":"055-976-1174","address":"静岡県三島市一番町13-7","latitude":"35.124705","longitude":"138.91328"},{"state":"静岡県","shopFlg":false,"name":"アジアンカフェ茶香茶花","phone_number":"054-336-7110","address":"静岡市清水区駒越東町5-26　ソレイユ野々村1F","latitude":"34.983833","longitude":"138.504215"},{"state":"静岡県","shopFlg":false,"name":"BAR CAPRICE","phone_number":"055-992-1808","address":"静岡県裾野市佐野90-1-1　ビューコート壱番館1F","latitude":"35.186971","longitude":"138.909697"},{"state":"静岡県","shopFlg":true,"name":"ワイン＆リカーズソネ","phone_number":"054-641-1030","address":"静岡県藤枝市駅前2-14-23","latitude":"34.851905","longitude":"138.253754"},{"state":"静岡県","shopFlg":false,"name":"台所屋一軒目","phone_number":"054-646-2999","address":"静岡県藤枝市駅前1-2-5","latitude":"34.849519","longitude":"138.251171"},{"state":"愛知県","shopFlg":false,"name":"いけす鶴八","phone_number":"052-262-4188","address":"愛知県名古屋市中区新栄2-25-3　薬師寺ビル１F","latitude":"35.167316","longitude":"136.920008"},{"state":"福井県","shopFlg":false,"name":"Bar Simon","phone_number":"0776-21-7188","address":"福井県福井市大宮3-29-14","latitude":"36.082801","longitude":"136.212542"},{"state":"大阪府","shopFlg":true,"name":"リカーショップアサヒヤ","phone_number":"06-6951-1986","address":"大阪府大阪市旭区今市2-22-14","latitude":"34.730774","longitude":"135.554213"},{"state":"大阪府","shopFlg":false,"name":"CRAFT BEER HOUSE molto!!","phone_number":"050-5799-1037","address":"大阪府大阪市北区角田町8-47 阪急グランドビル31F","latitude":"34.702986","longitude":"135.499048"},{"state":"大阪府","shopFlg":false,"name":"けむぱー","phone_number":"06-6949-8799","address":"大阪府大阪市北区天神橋3-11-34 北辰ビル1F","latitude":"34.702946","longitude":"135.512762"},{"state":"大阪府","shopFlt":true,"name":"生島商店","phone_number":"06-6381-0458","address":"大阪府吹田市内本町3-34-2","latitude":"34.755126","longitude":"135.527484"},{"state":"大阪府","shopFlg":false,"name":"Bar FOREST","phone_number":"06-6690-5111","address":"大阪府大阪市阿倍野区西田辺町1-20-39 トーヨーマンション1F","latitude":"34.621274","longitude":"135.515896"},{"state":"大阪府","shopFlg":false,"name":"Cafe&diner PLUTO","phone_number":"072-647-8419","address":"大阪府高槻市北園町１番３号 ２Ｆ","latitude":"34.853291","longitude":"135.621768"},{"state":"兵庫県","shopFlg":false,"name":"BAR 黒瀬(KUROSE)","phone_number":"078-333-0323","address":"兵庫県神戸市中央区中山手通1丁目14-12　85番地ビル2F","latitude":"34.695292","longitude":"135.192284"},{"state":"兵庫県","shopFlg":false,"name":"ワインバル　パヴェ　beer & wine pave’","phone_number":"06-6435-0175","address":"兵庫県尼崎市武庫之荘1-13-1　１階東側店舗","latitude":"34.754092","longitude":"135.393119"},{"state":"兵庫県","shopFlg":false,"name":"炭火焼鳥いもや","phone_number":"078-222-0248","address":"兵庫県神戸市中央区琴ノ緒町3-3-15","latitude":"34.697168","longitude":"135.196186"},{"state":"兵庫県","shopFlg":false,"name":"LOOP Dining comfortable moment","phone_number":"078-321-5300","address":"神戸市中央区下山手通2-16-16 A-2F","latitude":"34.694127","longitude":"135.189842"},{"state":"兵庫県","shopFlg":false,"name":"The Place KOBE","phone_number":"078-325-3180","address":"兵庫県神戸市中央区中山手通2-4-1","latitude":"34.694346","longitude":"135.188473"},{"state":"兵庫県","shopFlg":false,"name":"Bistro Style 078","phone_number":"078-855-4130","address":"兵庫県神戸市中央区琴ノ緒町5丁目4-13 1F","latitude":"34.695555","longitude":"135.1944"},{"state":"京都府","shopFlg":false,"name":"BEER BAR JIVE","phone_number":"075-241-2969","address":"京都市中京区先斗町通四条上る2丁目下樵木町203番地高喜ビル2F","latitude":"35.005714","longitude":"135.771027"},{"state":"京都府","shopFlg":true,"name":"富屋商店","phone_number":"075-231-0561","address":"京都府京都市中京区寺町通二条下る妙満寺前町465","latitude":"35.023236","longitude":"135.75254"},{"state":"滋賀県","shopFlg":false,"name":"ビアカフェPeter","phone_number":"0749-26-2625","address":"彦根市佐和町9-30","latitude":"35.272328","longitude":"136.260264"},{"state":"岡山県","shopFlg":true,"name":"ワインと地酒 武田 岡山店","phone_number":"086-801-7650","address":"岡山県岡山市南区新保1130-1","latitude":"34.636156","longitude":"133.915617"},{"state":"岡山県","shopFlg":true,"name":"ワインと地酒 武田 倉敷店","phone_number":"086-423-6566","address":"岡山県倉敷市田ノ上1097-2","latitude":"34.587497","longitude":"133.757935"},{"state":"岡山県","shopFlg":true,"name":"地酒の幸吉 城東店","phone_number":"086-278-8100","address":"岡山県岡山市中区下510-4","latitude":"34.682131","longitude":"133.995591"},{"state":"山口県","shopFlg":false,"name":"La Tierra （ラ・ティエラ）","phone_number":"0836-39-1588","address":"山口県山陽小野田市赤崎３丁目６−１","latitude":"33.963764","longitude":"131.175732"},{"state":"島根県","shopFlg":false,"name":"中村bar","phone_number":"0852-27-5770","address":"島根県松江市東本町4丁目8","latitude":"35.468682","longitude":"133.059685"},{"state":"鳥取県","shopFlg":false,"name":"monsoon食堂","phone_number":"0857-32-1583","address":"鳥取市賀露町122-4","latitude":"35.521063","longitude":"134.190842"},{"state":"香川県","shopFlg":true,"name":"久本酒店","phone_number":"087-868-2222","address":"香川県高松市上天神町768-2","latitude":"34.309255","longitude":"134.038532"},{"state":"香川県","shopFlg":false,"name":"凛と -Takamatsu-","phone_number":"087-813-3206","address":"香川県高松市丸亀町5-8 丸亀町ステーションビル2Ｆ","latitude":"34.343794","longitude":"134.050055"},{"state":"高知県","shopFlg":false,"name":"貝のおんちゃん","phone_number":"0880-35-0620","address":"高知県四万十市中村一条通2-10","latitude":"32.992084","longitude":"132.935602"},{"state":"福岡県","shopFlg":false,"name":"Bar The Boozer","phone_number":"092-683-4188","address":"福岡県福岡市東区香椎駅前１丁目９−１４","latitude":"33.658798","longitude":"130.442518"},{"state":"福岡県","shopFlg":false,"name":"バール・アルバ","phone_number":"092-409-2123","address":"福岡県福岡市博多区博多駅前4-11-18ホテルサンライン1F","latitude":"33.586084","longitude":"130.418083"},{"state":"長崎県","shopFlg":false,"name":"DRIC","phone_number":"095-800-2233","address":"長崎県長崎市中園町16-21","latitude":"32.792453","longitude":"129.858278"},{"state":"佐賀県","shopFlg":true,"name":"ラ・フィットくしだ","phone_number":"0952-55-6080","address":"佐賀県神埼市神埼町鶴3645-1","latitude":"33.315709","longitude":"130.36823"},{"state":"大分県","shopFlg":false,"name":"LEAP CAFE","phone_number":"097-507-8294","address":"大分市王子南町2-18 原田ビル102","latitude":"33.240627","longitude":"131.59272"},{"state":"北海道","shopFlg":false,"name":"BAR MINO","phone_number":"011-272-2004","address":"札幌市中央区北1西3 古久根ビル　B1F","latitude":"43.071883","longitude":"141.350176"},{"state":"北海道","shopFlg":false,"name":"beer&food HIGURASHI","phone_number":"011-532-8480","address":"札幌市中央区南5条西2丁目社交会館3F","latitude":"43.054937","longitude":"141.356103"},{"state":"山形県","shopFlg":false,"name":"THE ARCHIGRAM British Pub & Cafe","phone_number":"023-622-7570","address":"山形市十日町2-1-35","latitude":"38.245881","longitude":"140.336297"},{"state":"東京都","shopFlg":false,"name":"かんも　-kammo-","phone_number":"03-3782-5690","address":"品川区中延5-9-10村本ﾊ101","latitude":"35.607022","longitude":"139.710467"},{"state":"東京都","shopFlg":false,"name":"Goodbeer Faucets","phone_number":"03-3770-5544","address":"渋谷区松濤1-29-1 クロスロードビル 2F","latitude":"35.660622","longitude":"139.6939"},{"state":"東京都","shopFlg":false,"name":"Craft Beer & Whisky Bar Transit","phone_number":"03-6426-7788","address":"品川区旗の台5-13-12 佐藤ビル２Ｆ","latitude":"35.633737","longitude":"139.68568"},{"state":"東京都","shopFlg":false,"name":"リバーサイド","phone_number":"03-5577-4199","address":"板橋区中板橋4-15-1 藤井ビル　1F","latitude":"35.756252","longitude":"139.700511"},{"state":"東京都","shopFlg":false,"name":"風来坊","phone_number":"080-6560-3946","address":"北区十条仲原1-1-2 柏木ビル２F","latitude":"35.761484","longitude":"139.722036"},{"state":"東京都","shopFlg":false,"name":"ビアカフェ ガンブリヌス","phone_number":"042-325-0484","address":"国分寺市南町3-16-5 第46東京ビル6F","latitude":"35.69898","longitude":"139.480082"},{"state":"東京都","shopFlg":false,"name":"h@bit","phone_number":"03-3768-5447","address":"品川区南大井3-33-7 第８ハネハビル　２Ｆ","latitude":"35.587454","longitude":"139.734477"},{"state":"東京都","shopFlg":false,"name":"Beer Dining The GRIFFON","phone_number":"03-3498-0839","address":"渋谷区渋谷2-22-6 幸和ビル　Ｂ１Ｆ","latitude":"35.65839","longitude":"139.703848"},{"state":"東京都","shopFlg":false,"name":"Shot Bar ゾートロープ","phone_number":"03-3363-0162","address":"新宿区西新宿7-10-14 ガイアビル３Ｆ","latitude":"35.694487","longitude":"139.698407"},{"state":"東京都","shopFlg":false,"name":"地ビールバー まる麦","phone_number":"03-6380-4745","address":"新宿区荒木町1 一番館ビル　２Ｆ","latitude":"35.688897","longitude":"139.721861"},{"state":"東京都","shopFlg":false,"name":"神楽坂 ラ・カシェット","phone_number":"03-3513-0823","address":"新宿区神楽坂1-10 三経第22ビル3F","latitude":"35.700467","longitude":"139.742221"},{"state":"東京都","shopFlg":false,"name":"New School","phone_number":"03-3232-2626","address":"新宿区西早稲田2-1-17","latitude":"35.706539","longitude":"139.717822"},{"state":"東京都","shopFlg":false,"name":"焼き貝　あぶさん","phone_number":"03-3330-6855","address":"杉並区高円寺北2-38-15","latitude":"35.70864","longitude":"139.649942"},{"state":"東京都","shopFlg":false,"name":"BAR 私","phone_number":"03-5356-9375","address":"杉並区高円寺北3-2-1","latitude":"35.705576","longitude":"139.648312"},{"state":"東京都","shopFlg":false,"name":"Beer Bar STONE","phone_number":"03-5373-0312","address":"杉並区阿佐ヶ谷北2-4-2 田嶋店舗　2F","latitude":"35.78221","longitude":"139.636537"},{"state":"東京都","shopFlg":false,"name":"萬感","phone_number":"03-3314-5008","address":"杉並区高円寺南3-47-8 高円寺ニューナショナルコート 102 1F","latitude":"35.703624","longitude":"139.647879"},{"state":"東京都","shopFlg":false,"name":"麦酒倶楽部 ポパイ","phone_number":"03-3633-2120","address":"墨田区両国2-18-7 ハイツ両国駅前　１０２号","latitude":"35.695047","longitude":"139.792729"},{"state":"東京都","shopFlg":false,"name":"ビアバー うしとら","phone_number":"03-3485-9090","address":"世田谷区北沢2-9-3 三久ビル　２Ｆ","latitude":"35.662277","longitude":"139.668783"},{"state":"東京都","shopFlg":false,"name":"TACHIKAWA BREWERY","phone_number":"042-526-2766","address":"立川市柴崎町3-1-7 立川南口第2ビル5F","latitude":"35.697612","longitude":"139.411222"},{"state":"東京都","shopFlg":false,"name":"DEVIL CRAFT","phone_number":"03-6265-1779","address":"中央区日本橋室町4-2-3","latitude":"35.689579","longitude":"139.771158"},{"state":"東京都","shopFlg":false,"name":"BEER PUB BACCHUS","phone_number":"03-3231-4666","address":"中央区八重洲1-7-7 第２山本ビル　Ｂ１Ｆ","latitude":"35.680874","longitude":"139.770789"},{"state":"東京都","shopFlg":false,"name":"BULLDOG","phone_number":"03-3564-0996","address":"中央区銀座西3-1 銀座インズ１　２Ｆ","latitude":"35.674819","longitude":"139.765084"},{"state":"東京都","shopFlg":false,"name":"Bar　Ocean","phone_number":"03-5856-3366","address":"中央区八重洲1-4-20 東京八重洲ビルB1","latitude":"35.681883","longitude":"139.770439"},{"state":"東京都","shopFlg":false,"name":"モルタン","phone_number":"03-6659-5884","address":"千代田区内神田3-13-10 グリーンビルB1F","latitude":"35.690713","longitude":"139.770192"},{"state":"東京都","shopFlg":false,"name":"PLATFORM DELI + CAFE","phone_number":"03-5259-8051","address":"千代田区神田錦町3-21 ちよだプラットフォームスクウェア内","latitude":"35.691474","longitude":"139.761713"},{"state":"東京都","shopFlg":false,"name":"地ビールハウス　蔵くら","phone_number":"03-6206-8866","address":"千代田区鍛冶町1-4-6 東京神田ビル　３F","latitude":"35.689658","longitude":"139.770819"},{"state":"東京都","shopFlg":false,"name":"barBAR Ｔokyo","phone_number":"03-3216-0581","address":"千代田区丸の内1-9-1 東京駅地下名店街　Ｂ１Ｆ　黒塀横丁","latitude":"35.6816","longitude":"139.767589"},{"state":"東京都","shopFlg":false,"name":"Ale House","phone_number":"03-3980-4845","address":"豊島区西池袋1-16-8 山口ビル B1F","latitude":"35.695738","longitude":"139.709663"},{"state":"東京都","shopFlg":false,"name":"vivo","phone_number":"03-3987-1588","address":"豊島区東池袋1-20-5 七富久ビルB1","latitude":"35.730822","longitude":"139.715452"},{"state":"東京都","shopFlg":false,"name":"The Cat & Cask Tavern","phone_number":"03-3530-6180","address":"豊島区要町1-32-10","latitude":"35.735732","longitude":"139.695187"},{"state":"東京都","shopFlg":false,"name":"DRY DOCK","phone_number":"03-5777-4755","address":"港区新橋3-25-10","latitude":"35.664737","longitude":"139.758446"},{"state":"東京都","shopFlg":false,"name":"Ant'n Bee","phone_number":"03-3478-1250","address":"港区六本木5-1-5","latitude":"35.66272","longitude":"139.733026"},{"state":"東京都","shopFlg":false,"name":"CRAFT BEER MARKET 虎ノ門店","phone_number":"03-6206-1603","address":"港区西新橋1-23-3 S.A.グレイス　1F","latitude":"35.668606","longitude":"139.751772"},{"state":"東京都","shopFlg":false,"name":"樽生ビール専門店　COOPER ALE'S","phone_number":"03-6450-1377","address":"港区新橋3-16-3 烏森ビル３Ｆ","latitude":"35.665817","longitude":"139.757162"},{"state":"東京都","shopFlg":false,"name":"憩 ikoi","phone_number":"03-6435-4145","address":"港区南麻布1-6-3","latitude":"35.652507","longitude":"139.735442"},{"state":"東京都","shopFlg":false,"name":"TAKIEY","phone_number":"03-5731-7484","address":"目黒区平町1-26-13","latitude":"35.617504","longitude":"139.676777"},{"state":"東京都","shopFlg":false,"name":"ハンモックカフェ mahikamano","phone_number":"0422-42-5930","address":"武蔵野市吉祥寺南町2-8-1","latitude":"35.70232","longitude":"139.582218"},{"state":"東京都","shopFlg":false,"name":"テラスカフェ720","phone_number":"03-5731-8500","address":"目黒区中根2-1-15","latitude":"35.616243","longitude":"139.676982"},{"state":"東京都","shopFlg":false,"name":"Nelson's","phone_number":"03-5704-3588","address":"目黒区五本木3-30-6","latitude":"35.629917","longitude":"139.681792"},{"state":"東京都","shopFlg":false,"name":"Speyside Way","phone_number":"03-3723-7807","address":"目黒区自由が丘1-26-9　三笠ビル５階","latitude":"35.608793","longitude":"139.668627"},{"state":"神奈川県","shopFlg":false,"name":"Gold'nBub","phone_number":"0466-51-4176","address":"藤沢市辻堂2-9-30","latitude":"35.335514","longitude":"139.446312"},{"state":"神奈川県","shopFlg":false,"name":"Century Break","phone_number":"0466-25-5688","address":"藤沢市鵠沼石上1-4-6","latitude":"35.336451","longitude":"139.488919"},{"state":"神奈川県","shopFlg":false,"name":"Beer Cafe HOPMAN","phone_number":"0467-85-5688","address":"茅ヶ崎市十間坂1-1-23 サンライヅ湘南　２Ｆ","latitude":"35.330875","longitude":"139.401796"},{"state":"神奈川県","shopFlg":false,"name":"Beer Republic","phone_number":"045-444-0502","address":"横浜市神奈川区金港町6-13","latitude":"35.469294","longitude":"139.626367"},{"state":"神奈川県","shopFlg":false,"name":"KEEL'S BAR HOUSE","phone_number":"045-985-7522","address":"横浜市青葉区青葉台2-11-28","latitude":"35.546135","longitude":"139.516734"},{"state":"神奈川県","shopFlg":false,"name":"クラフトビアバー","phone_number":"045-651-0440","address":"横浜市中区太田町2-31-3　コーポサンライフ太田町1F","latitude":"35.447574","longitude":"139.637622"},{"state":"神奈川県","shopFlg":false,"name":"アイリッシュバー・マッキャンズ","phone_number":"044-711-1761","address":"川崎市中原区小杉町3-269-3中","latitude":"35.574726","longitude":"139.658661"},{"state":"愛知県","shopFlg":false,"name":"AL Fortuna","phone_number":"052-753-4799","address":"名古屋市千種区末盛通1-1 弘法屋ビル2F","latitude":"35.166701","longitude":"136.952305"},{"state":"愛知県","shopFlg":false,"name":"23 craft beerz NAGOYA","phone_number":"052-265-9777","address":"名古屋市中区丸の内2-3-21","latitude":"35.176661","longitude":"136.899982"},{"state":"愛知県","shopFlg":false,"name":"BEER & COFFEE 229","phone_number":"0564-74-7981","address":"岡崎市八幡町2-29","latitude":"34.960472","longitude":"137.165644"},{"state":"愛知県","shopFlg":false,"name":"Casa de Lazo","phone_number":"052-722-8882","address":"名古屋市東区矢田5-1-56","latitude":"35.191716","longitude":"136.94158"},{"state":"愛知県","shopFlg":false,"name":"地酒地焼酎 かない","phone_number":"052-953-6121","address":"名古屋市東区東桜1-2-25 野々山ビル1F","latitude":"35.172999","longitude":"136.911043"},{"state":"愛知県","shopFlg":false,"name":"キッチン雅木","phone_number":"052-703-3614","address":"名古屋市名東区野間町14","latitude":"35.160391","longitude":"137.007137"},{"state":"愛知県","shopFlg":false,"name":"KEG NAGOYA","phone_number":"052-971-8211","address":"名古屋市東区東桜1-10-13","latitude":"35.172712","longitude":"136.910134"},{"state":"愛知県","shopFlg":false,"name":"Beerhouse&yakitori CHICKEN BOY","phone_number":"052-732-3177","address":"名古屋市千種区内山3-31-14 サンシャイン今池1階","latitude":"35.169607","longitude":"136.935714"},{"state":"愛知県","shopFlg":false,"name":"MAX’S　BAR","phone_number":"052-238-5100","address":"名古屋市中区大須4-1-7 サンポート矢場ビル1F","latitude":"35.158415","longitude":"136.90411"},{"state":"新潟県","shopFlg":false,"name":"Rohan","phone_number":"025-244-9000","address":"新潟市中央区南万代町1-7　南万代テラスA棟1F","latitude":"37.913573","longitude":"139.057609"},{"state":"静岡県","shopFlg":false,"name":"ビールのヨコタ","phone_number":"054-255-3683","address":"静岡市葵区呉服町2-5-22","latitude":"34.974434","longitude":"138.383768"},{"state":"静岡県","shopFlg":false,"name":"GROW STOCK","phone_number":"054-293-9331","address":"静岡市葵区紺屋町6-9 紺屋町中ビル5F","latitude":"34.972979","longitude":"138.385544"},{"state":"静岡県","shopFlg":false,"name":"ダイニングバー　黒ひげ","phone_number":"06-6885-5139","address":"大阪市淀川区十三本町3-7-46","latitude":"34.721839","longitude":"135.481511"},{"state":"大阪府","shopFlg":false,"name":"たこもん","phone_number":"06-6581-8824　","address":"大阪市西区千代崎1-22-5","latitude":"34.673698","longitude":"135.480204"},{"state":"大阪府","shopFlg":false,"name":"ビアバル・ダークホース","phone_number":"06-6131-6524","address":"大阪市福島区福島８丁目８-３","latitude":"34.696048","longitude":"135.483847"},{"state":"大阪府","shopFlg":false,"name":"いたりあん居酒屋「裏道１階」","phone_number":"072-720-6636","address":"箕面市萱野2-11-4　","latitude":"34.83148","longitude":"135.486059"},{"state":"大阪府","shopFlg":false,"name":"Bar Lime Light","phone_number":"072-6010-261","address":"茨木市双葉町2-3ツインリーブス1F","latitude":"34.807949","longitude":"135.53852"},{"state":"大阪府","shopFlg":false,"name":"Bar　みとう","phone_number":"06-6245-1358","address":"大阪市中央区東心斎橋1-18-2 心斎橋山本ビル 1F","latitude":"34.669121","longitude":"135.487899"},{"state":"大阪府","shopFlg":false,"name":"Art dining Oval","phone_number":"06-6115-7756","address":"大阪市阿倍野区阿倍野筋2-4-45","latitude":"34.643318","longitude":"135.512704"},{"state":"大阪府","shopFlg":false,"name":"ワインバー　リエゾン","phone_number":"06-4797-0626","address":"大阪市北区堂島1-3-33","latitude":"34.696785","longitude":"135.498279"},{"state":"大阪府","shopFlg":false,"name":"カフェ サルンポワク","phone_number":"072-764-8200","address":"箕面市箕面6-2-18","latitude":"34.834354","longitude":"135.469088"},{"state":"大阪府","shopFlg":false,"name":"Craft Beer Base","phone_number":"06-6131-7015","address":"大阪市北区大淀南1丁目2‐11","latitude":"34.703372","longitude":"135.490308"},{"state":"大阪府","shopFlg":false,"name":"串焼屋","phone_number":"06-6651-0844","address":"大阪市西成区玉出西2-2-1","latitude":"34.625715","longitude":"135.490682"},{"state":"大阪府","shopFlg":false,"name":"吉風","phone_number":"06-6211-7019","address":"大阪市中央区心斎橋筋2-7-11 日宝ロイヤルビル１Ｆ","latitude":"34.670532","longitude":"135.500926"},{"state":"大阪府","shopFlg":false,"name":"楽酒楽肴 越冬","phone_number":"06-6943-8161","address":"大阪市中央区本町橋 7-13　松井ビル１階","latitude":"34.68319","longitude":"135.511104"},{"state":"大阪府","shopFlg":false,"name":"ri:casa","phone_number":"06-6921-3892","address":"大阪市都島区都島本通4-22-15","latitude":"34.708567","longitude":"135.531876"},{"state":"大阪府","shopFlg":false,"name":"THE QUICK PIZZA","phone_number":"06-6359-8787","address":"大阪市北区本庄東3-9-15","latitude":"34.715233","longitude":"135.507545"},{"state":"大阪府","shopFlg":false,"name":"Kokopelli","phone_number":"06-7502-3757","address":"大阪市中央区難波1-6-5 TMビル1F","latitude":"34.667739","longitude":"135.501708"},{"state":"大阪府","shopFlg":false,"name":"BAR JURA","phone_number":"06-6361-1158","address":"大阪市北区兎我野町12-15 丸一ビル１階","latitude":"34.701006","longitude":"135.502704"},{"state":"大阪府","shopFlg":false,"name":"Bar hakushe","phone_number":"06-6458-1677","address":"大阪市福島区福島5-8-16","latitude":"34.696118","longitude":"135.487441"},{"state":"大阪府","shopFlg":false,"name":"なんば　松潮屋","phone_number":"06-6212-1178","address":"大阪市中央区難波1-3-13","latitude":"34.667457","longitude":"135.50251"},{"state":"大阪府","shopFlg":false,"name":"樋口酒店","phone_number":"072-721-3112","address":"箕面市箕面1-1-37","latitude":"34.835976","longitude":"135.468382"},{"state":"大阪府","shopFlg":false,"name":"橋本亭","phone_number":"072-721-3221","address":"箕面市箕面2-5-37","latitude":"34.83811","longitude":"135.469868"},{"state":"大阪府","shopFlg":false,"name":"コージーコテージ","phone_number":"072-702-0596","address":"箕面市箕面4-2-23","latitude":"34.834121","longitude":"135.478892"},{"state":"大阪府","shopFlg":false,"name":"スーパー居酒家キッチンマルコン","phone_number":"072-724-0551","address":"箕面市箕面5-13-46","latitude":"34.832791","longitude":"135.470548"},{"state":"大阪府","shopFlg":false,"name":"洋風料理 フェリーチェ","phone_number":"072-720-3031","address":"箕面市箕面6-1-32 1F","latitude":"34.832971","longitude":"135.468882"},{"state":"大阪府","shopFlg":false,"name":"鉄板焼居酒屋 轍","phone_number":"072-723-8600","address":"箕面市箕面6-1-34 101","latitude":"34.832971","longitude":"135.468882"},{"state":"大阪府","shopFlg":false,"name":"串かつ 壺千","phone_number":"072-723-0077","address":"箕面市箕面6-1-34","latitude":"34.832746","longitude":"135.468454"},{"state":"大阪府","shopFlg":false,"name":"食事処／支那そば　しいな","phone_number":"072-700-4117","address":"箕面市粟生外院6-2-33","latitude":"34.84349","longitude":"135.502715"},{"state":"大阪府","shopFlg":false,"name":"やき鳥しゃっくん","phone_number":"072-727-3018","address":"箕面市石丸2-7-1","latitude":"34.838696","longitude":"135.497333"},{"state":"大阪府","shopFlg":false,"name":"美々卯　箕面店","phone_number":"072-720-5688","address":"箕面市稲1-1-19","latitude":"34.824458","longitude":"135.475626"},{"state":"大阪府","shopFlg":false,"name":"狩人食堂","phone_number":"072-725-0101","address":"箕面市温泉町1-1","latitude":"34.838534","longitude":"135.468174"},{"state":"大阪府","shopFlg":false,"name":"menu","phone_number":"072-724-7246","address":"箕面市桜井2-10-5 桜井市場内","latitude":"34.815941","longitude":"135.462536"},{"state":"大阪府","shopFlg":false,"name":"ENJYA","phone_number":"072-725-3422","address":"箕面市桜井2-10-23 2F","latitude":"34.815712","longitude":"135.462308"},{"state":"大阪府","shopFlg":false,"name":"手打ち蕎麦処 丹波","phone_number":"072-727-8087","address":"箕面市船場西3-8-6","latitude":"34.818551","longitude":"135.488095"},{"state":"大阪府","shopFlg":false,"name":"手造りハンバーグの店","phone_number":"072-722-1228","address":"箕面市白島2-28-7","latitude":"34.838302","longitude":"135.487736"},{"state":"大阪府","shopFlg":false,"name":"炭火焼肉 七輪","phone_number":"072-722-6160","address":"箕面市牧落5-5-24","latitude":"34.820698","longitude":"135.47289"},{"state":"大阪府","shopFlg":false,"name":"楓来坊","phone_number":"072-725-1168","address":"箕面市箕面公園2-74","latitude":"34.85333","longitude":"135.472095"},{"state":"大阪府","shopFlg":false,"name":"宵ノKθFUKU","phone_number":"072-761-6803","address":"池田市石橋2-15-33","latitude":"34.808437","longitude":"135.447134"},{"state":"大阪府","shopFlg":false,"name":"創作居酒屋　おっげ","phone_number":"072-632-5439","address":"茨木市東奈良3-16-36","latitude":"34.801815","longitude":"135.567952"},{"state":"大阪府","shopFlg":false,"name":"まるしん","phone_number":"06-6358-0081","address":"大阪市北区池田町7-1","latitude":"34.706992","longitude":"135.513008"},{"state":"大阪府","shopFlg":false,"name":"Cafe Bar Ima Doma","phone_number":"06-6940-7255","address":"大阪市北区浮田1-1-15","latitude":"34.70875","longitude":"135.509248"},{"state":"大阪府","shopFlg":false,"name":"brasserie boo","phone_number":"06-6348-1159","address":"大阪市北区梅田2丁目4-13 阪神産経桜橋ビル1F","latitude":"34.698401","longitude":"135.494028"},{"state":"大阪府","shopFlg":false,"name":"RE-CAFE","phone_number":"06-6485-7773","address":"大阪市北区梅田3-1-3","latitude":"34.702939","longitude":"135.495524"},{"state":"大阪府","shopFlg":false,"name":"会津屋　梅田店","phone_number":"06-6346-3444","address":"大阪市北区梅田3-2-136　梅三小路内","latitude":"34.70077","longitude":"135.492793"},{"state":"大阪府","shopFlg":false,"name":"炉端屋つばめいろ","phone_number":"06-4797-2266","address":"大阪市北区大淀中1-16-16","latitude":"34.706333","longitude":"135.488352"},{"state":"大阪府","shopFlg":false,"name":"CRAFT BEER HOUSE molto!","phone_number":"06-6809-2641","address":"大阪市北区角田町8-47　阪急グランドビル31階","latitude":"34.702986","longitude":"135.499048"},{"state":"大阪府","shopFlg":false,"name":"アレグレ","phone_number":"06-6361-6060","address":"大阪市北区小松原町1-11 阪急東通り 田園ビル2F","latitude":"34.702476","longitude":"135.50072"},{"state":"大阪府","shopFlg":false,"name":"ワイン食堂リエゾン茶屋町","phone_number":"06-6359-8711","address":"大阪市北区芝田1-6-2 阪急古書のまち １F","latitude":"34.705807","longitude":"135.497857"},{"state":"大阪府","shopFlg":false,"name":"イタリア酒場 ENTRATA 茶屋町店","phone_number":"06-6374-3066","address":"大阪市北区芝田1-7-2","latitude":"34.707339","longitude":"135.497957"},{"state":"大阪府","shopFlg":false,"name":"Bar 道成","phone_number":"06-6311-7314","address":"大阪市北区曽根崎2-5-24 石見ビル２Ｆ","latitude":"34.699493","longitude":"135.50146"},{"state":"大阪府","shopFlg":false,"name":"地下酒場umbrella","phone_number":"06-6316-4440","address":"大阪市北区曽根崎２‐７‐２　松田ビルＢ１","latitude":"34.699659","longitude":"135.50029"},{"state":"大阪府","shopFlg":false,"name":"Living Place SUN","phone_number":"06-6348-0119","address":"大阪市北区曽根崎新地1-1-14 第二サウスビル２F","latitude":"34.696769","longitude":"135.499692"},{"state":"大阪府","shopFlg":false,"name":"Beso Mary.r","phone_number":"06-6345-8885","address":"大阪市北区曽根崎新地1-3-10 北新地山忠ビル2号館B1F","latitude":"34.697664","longitude":"135.49837"},{"state":"大阪府","shopFlg":false,"name":"cucina cucina","phone_number":"06-6344-9717","address":"大阪市北区曽根崎新地1-6-13 ニューセントラルビル1F","latitude":"34.697526","longitude":"135.498127"},{"state":"大阪府","shopFlg":false,"name":"山吹","phone_number":"06-6345-4488","address":"大阪市北区曽根崎新地1-6-24 2F","latitude":"34.697518","longitude":"135.498718"},{"state":"大阪府","shopFlg":false,"name":"酒場　トペ","phone_number":"090-3972-7194","address":"大阪市北区曾根崎新地1-8-3 遅ビル3F","latitude":"34.697395","longitude":"135.50041"},{"state":"大阪府","shopFlg":false,"name":"Bar Quinta","phone_number":"06-6345-1911","address":"大阪市北区曽根崎新地1-11-6","latitude":"34.697637","longitude":"135.498168"},{"state":"大阪府","shopFlg":false,"name":"STANDARD BOOKSTORE　茶屋町","phone_number":"06-6485-7139","address":"大阪市北区茶屋町8-26","latitude":"34.707139","longitude":"135.499662"},{"state":"大阪府","shopFlg":false,"name":"TENMA BAR KAFU","phone_number":"06-6881-0530","address":"大阪市北区天神橋4-11-18","latitude":"34.706289","longitude":"135.511647"},{"state":"大阪府","shopFlg":false,"name":"MUSH-UP","phone_number":"06-6351-3106","address":"大阪市北区天神橋6丁目3-26","latitude":"34.710031","longitude":"135.512597"},{"state":"大阪府","shopFlg":false,"name":"マツケン食堂","phone_number":"06-6344-1099","address":"大阪市北区堂島1-3-19 薬師堂ビル１階1-C","latitude":"34.696873","longitude":"135.497396"},{"state":"大阪府","shopFlg":false,"name":"大西デンキ","phone_number":"080-2481-0024","address":"大阪市北区堂島1-3-28　堂島センター１Ｆ","latitude":"34.69687","longitude":"135.497759"},{"state":"大阪府","shopFlg":false,"name":"TAVERNA ENTRATA","phone_number":"06-6345-0306","address":"大阪市北区堂島2-1-27 桜橋千代田ビル1F","latitude":"34.696249","longitude":"135.494445"},{"state":"大阪府","shopFlg":false,"name":"市松","phone_number":"06-6346-0112","address":"大阪市北区堂島2-2-33 萬伸社ビル　１Ｆ","latitude":"34.697286","longitude":"135.494887"},{"state":"大阪府","shopFlg":false,"name":"ごちそう埋蔵の店　くらや","phone_number":"06-6315-8760","address":"大阪市北区堂山町2-13","latitude":"34.70284","longitude":"135.503726"},{"state":"大阪府","shopFlg":false,"name":"珈琲舎・書肆アラビク","phone_number":"06-7500-5519","address":"大阪市北区中崎3-2-14","latitude":"34.70847","longitude":"135.504842"},{"state":"大阪府","shopFlg":false,"name":"Tina Lente","phone_number":"06-6359-2448","address":"大阪市北区中崎西1－7－28","latitude":"34.708081","longitude":"135.50452"},{"state":"大阪府","shopFlg":false,"name":"飛鳥","phone_number":"06-6361-0137","address":"大阪市北区西天満３丁目８－１８　１F","latitude":"34.695021","longitude":"135.507492"},{"state":"大阪府","shopFlg":false,"name":"おいしい肉とお酒 月桃","phone_number":"06-6361-4335","address":"大阪市北区山崎町2-2 グリーン関野ビル1F","latitude":"34.705821","longitude":"135.509423"},{"state":"大阪府","shopFlg":false,"name":"イタリア食堂 pelotto","phone_number":"080-3516-8094","address":"大阪市此花区西九条3-12-13","latitude":"34.683491","longitude":"135.466707"},{"state":"大阪府","shopFlg":false,"name":"庵　よすが","phone_number":"06-7890-6210","address":"大阪市住吉区苅田3-12-16 苅田３丁目ハイツ","latitude":"34.60168","longitude":"135.51621"},{"state":"大阪府","shopFlg":false,"name":"DINING BAR Cache-Cache","phone_number":"06-6180-5555","address":"大阪市城東区蒲生1-8-5","latitude":"34.69833","longitude":"135.536734"},{"state":"大阪府","shopFlg":false,"name":"レ　コッコレ","phone_number":"06-6245-5556","address":"大阪市中央区北久宝寺町3-4-1　豆庭ビル1,2階","latitude":"34.680345","longitude":"135.50226"},{"state":"大阪府","shopFlg":false,"name":"MJB珈琲店","phone_number":"06-6203-0078","address":"大阪市中央区北浜4-1-1 石原ビル　Ｂ１Ｆ","latitude":"34.692356","longitude":"135.500663"},{"state":"大阪府","shopFlg":false,"name":"旬菜　桜花","phone_number":"06-6201-0223","address":"大阪市中央区高麗橋4-5-13 淀屋橋サテライトビル1F","latitude":"34.690222","longitude":"135.498146"},{"state":"大阪府","shopFlg":false,"name":"大阪産（もん）料理　空　船場女将小路店","phone_number":"06-6241-5855","address":"大阪市中央区船場中央4-1-10 船場センタービル10号館B1","latitude":"34.681808","longitude":"135.504021"},{"state":"大阪府","shopFlg":false,"name":"アララギ","phone_number":"06-6764-1238","address":"大阪市中央区谷町6-18-28","latitude":"34.675598","longitude":"135.513409"},{"state":"大阪府","shopFlg":false,"name":"しゃんらん","phone_number":"06-4304-0064","address":"大阪市中央区玉造1-6-22","latitude":"34.675059","longitude":"135.53083"},{"state":"大阪府","shopFlg":false,"name":"hang","phone_number":"06-6762-2515","address":"大阪市中央区玉造2-16-25　大江ビル１F","latitude":"34.67508","longitude":"135.529408"},{"state":"大阪府","shopFlg":false,"name":"RICOCHE","phone_number":"06-6641-3261","address":"大阪市中央区難波3-2-28","latitude":"34.666119","longitude":"135.501555"},{"state":"大阪府","shopFlg":false,"name":"BAR KITAYAMA","phone_number":"06-6632-7722","address":"大阪市中央区難波4-7-9 南進会館　１Ｆ","latitude":"34.666692","longitude":"135.498808"},{"state":"大阪府","shopFlg":false,"name":"会津屋　ナンバ店","phone_number":"06-6649-7708","address":"大阪市中央区難波5丁目　　ナンバなんなん内","latitude":"34.665297","longitude":"135.500956"},{"state":"大阪府","shopFlg":false,"name":"居酒屋 さんぽ","phone_number":"06-6631-3353","address":"大阪市中央区難波5-1-18 なんばダイニングメゾン8F","latitude":"34.664672","longitude":"135.500926"},{"state":"大阪府","shopFlg":false,"name":"リュミエール レスプリカ","phone_number":"06-6633-2281","address":"大阪市中央区難波5-1-18　なんばダイニングメゾン 9F","latitude":"34.66474","longitude":"135.50048"},{"state":"大阪府","shopFlg":false,"name":"STANDARD BOOKSTORE　心斎橋","phone_number":"06-6484-2239","address":"大阪市中央区西心斎橋2-2-12クリスタグランドビルBF","latitude":"34.67059","longitude":"135.499716"},{"state":"大阪府","shopFlg":false,"name":"焼肉　仁","phone_number":"06-6211-6165","address":"大阪市中央区西心斎橋2-9-17 オービットステージⅡ1F [102/103]","latitude":"34.670454","longitude":"135.498394"},{"state":"大阪府","shopFlg":false,"name":"Pinot noir","phone_number":"06-6253-1167","address":"大阪市中央区東心斎橋1-8-14 オーブ・ナテ　２Ｆ","latitude":"34.67316","longitude":"135.504092"},{"state":"大阪府","shopFlg":false,"name":"パシオン・エ・ナチュール　心斎橋店","phone_number":"06-6241-1159","address":"大阪市中央区東心斎橋1-12-14 ゼルコヴァビル　１Ｆ","latitude":"34.674498","longitude":"135.503445"},{"state":"大阪府","shopFlg":false,"name":"Ritto marble＊tre","phone_number":"06-4704-5678","address":"大阪市中央区東心斎橋1-13-20 カネコマビル2F","latitude":"34.673827","longitude":"135.503595"},{"state":"大阪府","shopFlg":false,"name":"BOOTLEG TAVARN","phone_number":"06-6245-4748","address":"大阪市中央区東心斎橋1-15-11 日宝周防町エレガンスビル１F","latitude":"34.672068","longitude":"135.504121"},{"state":"大阪府","shopFlg":false,"name":"東心斎橋ほおずき","phone_number":"06-6252-2810","address":"大阪市中央区東心斎橋1-17-1 コスミビル 2階","latitude":"34.673466","longitude":"135.503264"},{"state":"大阪府","shopFlg":false,"name":"和と菜と国の酒　来良し","phone_number":"06-6232-1270","address":"大阪市中央区平野町3-1-13","latitude":"34.68793","longitude":"135.502779"},{"state":"大阪府","shopFlg":false,"name":"Qbrick","phone_number":"06-6203-0690","address":"大阪市中央区平野町4-6-12京音ビル,1F","latitude":"34.687574","longitude":"135.498808"},{"state":"大阪府","shopFlg":false,"name":"The Court","phone_number":"06-6231-3200","address":"大阪市中央区伏見町3-3-3 芝川ビル　1F","latitude":"34.689006","longitude":"135.501809"},{"state":"大阪府","shopFlg":false,"name":"Arcadian","phone_number":"06-4963-2653","address":"大阪市中央区南船場4-11-7","latitude":"34.676123","longitude":"135.498863"},{"state":"大阪府","shopFlg":false,"name":"Beer Hop","phone_number":"06-6262-2024","address":"大阪市中央区南久宝寺町1-9-2 南久宝寺ビル1F","latitude":"34.679399","longitude":"135.507269"},{"state":"大阪府","shopFlg":false,"name":"大阪とらふぐの会　本店","phone_number":"06-6711-0137","address":"大阪市天王寺区寺田町2-1-22 ロッキービル6F","latitude":"34.65062","longitude":"135.522601"},{"state":"大阪府","shopFlg":false,"name":"Winebar・ya Riblin","phone_number":"06-6599-8188","address":"大阪市浪速区元町1-4-13 井本ビル1F","latitude":"34.665468","longitude":"135.496995"},{"state":"大阪府","shopFlg":false,"name":"大阪産（もん）料理　空　堀江店","phone_number":"06-6648-8151","address":"大阪市西区北堀江1-1-27　イマイビル1階","latitude":"34.674269","longitude":"135.497225"},{"state":"大阪府","shopFlg":false,"name":"天然食堂　かふぅ","phone_number":"06-6533-0775","address":"大阪市西区北堀江1-14-21","latitude":"34.673246","longitude":"135.494491"},{"state":"大阪府","shopFlg":false,"name":"Craft Beer Works Kamikaze","phone_number":"06-6539-7550","address":"大阪市西区北堀江1-22-21 ヒフミヤビル１F","latitude":"34.674018","longitude":"135.493506"},{"state":"大阪府","shopFlg":false,"name":"おでん・うどん　○","phone_number":"06-7493-3115","address":"大阪市西区北堀江3-4-2","latitude":"34.673357","longitude":"135.4903"},{"state":"大阪府","shopFlg":false,"name":"ひまわり","phone_number":"06-6447-0922","address":"大阪市西区京町堀1-13-17","latitude":"34.686633","longitude":"135.494574"},{"state":"大阪府","shopFlg":false,"name":"VADE MECVM","phone_number":"06-6447-1335","address":"大阪市西区京町堀1-13-21","latitude":"34.686783","longitude":"135.494988"},{"state":"大阪府","shopFlg":false,"name":"ciucate","phone_number":"06-6441-2202","address":"大阪市西区京町堀1-17-3","latitude":"34.687341","longitude":"135.493833"},{"state":"大阪府","shopFlg":false,"name":"おおの家","phone_number":"06-6585-7291","address":"大阪市西区新町1-23-8","latitude":"34.676551","longitude":"135.495466"},{"state":"大阪府","shopFlg":false,"name":"HOSTEL 64 Osaka","phone_number":"06-6556-6586","address":"大阪市西区新町3-11-20","latitude":"34.678028","longitude":"135.488342"},{"state":"大阪府","shopFlg":false,"name":"D&DEPARTMENT DINING OSAKA","phone_number":"06-4391-2090","address":"大阪市西区南堀江2-9-14","latitude":"34.671001","longitude":"135.490425"},{"state":"大阪府","shopFlg":false,"name":"会津屋　本店","phone_number":"06-6651-2311","address":"大阪市西成区玉出西2-3-1","latitude":"34.62526","longitude":"135.490568"},{"state":"大阪府","shopFlg":false,"name":"大阪まんぷく堂","phone_number":"06-6972-1199","address":"大阪市東成区大今里西3-4-14","latitude":"34.668272","longitude":"135.542012"},{"state":"大阪府","shopFlg":false,"name":"THE DOGHOUSE INN","phone_number":"06-6972-3314","address":"大阪市東成区東小橋3-14-3","latitude":"34.66723","longitude":"135.531419"},{"state":"大阪府","shopFlg":false,"name":"スタンド","phone_number":"06-7494-4841","address":"大阪市東成区東中本1-2-10　10F","latitude":"34.681609","longitude":"135.545734"},{"state":"大阪府","shopFlg":false,"name":"網焼き　あぶら屋","phone_number":"06-6345-1002","address":"大阪市福島区鷺洲2-10-1","latitude":"34.69779","longitude":"135.482744"},{"state":"大阪府","shopFlg":false,"name":"びんびとお酒　おがたまの木","phone_number":"06-6451-7557","address":"大阪市福島区福島2-7-20","latitude":"34.694423","longitude":"135.487297"},{"state":"大阪府","shopFlg":false,"name":"kamoshiya Kusumoto","phone_number":"06-6455-8827","address":"大阪市福島区福島5-17-14","latitude":"34.695076","longitude":"135.484478"},{"state":"大阪府","shopFlg":false,"name":"パシオン・エ・ナチュール 福島店","phone_number":"06-6452-1159","address":"大阪市福島区福島6-1 鉄道高架下","latitude":"34.692927","longitude":"135.479543"},{"state":"大阪府","shopFlg":false,"name":"ONE'S OSAKA","phone_number":"06-6351-9173","address":"大阪市都島区東野田町2-9-7","latitude":"34.698152","longitude":"135.531729"},{"state":"大阪府","shopFlg":false,"name":"リンコン カタルーニャ","phone_number":"06-6354-2314","address":"大阪市都島区東野田町3-6-12","latitude":"34.698107","longitude":"135.535512"},{"state":"大阪府","shopFlg":false,"name":"HEAVEN`S CAFE","phone_number":"06-6309-7527","address":"大阪市淀川区十三東2-2-1","latitude":"34.721379","longitude":"135.487616"},{"state":"大阪府","shopFlg":false,"name":"ビストロ ヴィサージュ","phone_number":"06-6394-5135","address":"大阪市淀川区宮原2-3-18","latitude":"34.739916","longitude":"135.503562"},{"state":"大阪府","shopFlg":false,"name":"炭火焼鳥　一徹","phone_number":"0721-55-1181","address":"河内長野市菊水町1-7","latitude":"34.450588","longitude":"135.573575"},{"state":"大阪府","shopFlg":false,"name":"eni-bru","phone_number":"072-255-8317","address":"堺市北区中百舌鳥町2-71","latitude":"34.556942","longitude":"135.505599"},{"state":"大阪府","shopFlg":false,"name":"The 2nd Vine","phone_number":"072-255-8316","address":"堺市北区中百舌鳥町2-71 イルグランディ1F","latitude":"34.556944","longitude":"135.505584"},{"state":"大阪府","shopFlg":false,"name":"麹庵","phone_number":"072-201-1194","address":"堺市中区深井沢町3373","latitude":"34.531731","longitude":"135.498566"},{"state":"大阪府","shopFlg":false,"name":"炭火焼とり　鳥べえ","phone_number":"06-6330-6271","address":"吹田市岸部北2-4-26","latitude":"34.778562","longitude":"135.53315"},{"state":"大阪府","shopFlg":false,"name":"江坂東急イン　シャングリラ","phone_number":"06-6338-4095","address":"吹田市豊津町9-6 江坂東急イン　２Ｆ","latitude":"34.758344","longitude":"135.496309"},{"state":"大阪府","shopFlg":false,"name":"Bar Sputnik","phone_number":"072-695-5533","address":"高槻市大畑町3-1　オーニシビル２階","latitude":"34.838391","longitude":"135.592603"},{"state":"大阪府","shopFlg":false,"name":"ダイニングバー オールズ","phone_number":"0726-84-1345","address":"高槻市高槻町11-7","latitude":"34.850389","longitude":"135.621149"},{"state":"大阪府","shopFlg":false,"name":"喫茶去　ゆり","phone_number":"072-694 -0338","address":"高槻市氷室町2-51-2","latitude":"34.849275","longitude":"135.588402"},{"state":"大阪府","shopFlg":false,"name":"いち凛","phone_number":"06-6858-3320","address":"豊中市中桜塚2-18-2 桜塚商店街","latitude":"34.780144","longitude":"135.468511"},{"state":"大阪府","shopFlg":false,"name":"美酒嘉肴 利政214","phone_number":"080-2402-8064","address":"豊中市服部元町1-3-2","latitude":"34.762993","longitude":"135.476508"},{"state":"大阪府","shopFlg":false,"name":"さしの花","phone_number":"06-6856-3487","address":"豊中市螢池北町1-1-1","latitude":"34.797116","longitude":"135.447698"},{"state":"大阪府","shopFlg":false,"name":"味噌らーめん専門 みつか坊主","phone_number":"06-6850-3532","address":"豊中市螢池北町3-3-13","latitude":"34.795719","longitude":"135.444021"},{"state":"大阪府","shopFlg":false,"name":"Apsara cafe","phone_number":"06-6832-5188","address":"豊中市本町6-1-3","latitude":"34.790051","longitude":"135.466575"},{"state":"大阪府","shopFlg":false,"name":"かちがらす　八戸ノ里店","phone_number":"06-6781-8941","address":"東大阪市小阪2-15-14","latitude":"34.664268","longitude":"135.587569"},{"state":"大阪府","shopFlg":false,"name":"Ages Cafe","phone_number":"072-805-0607","address":"枚方市禁野本町1-8-20 １Ｆ","latitude":"34.819109","longitude":"135.658149"},{"state":"大阪府","shopFlg":false,"name":"Bar Amp","phone_number":"072-995-4666","address":"八尾市北本町1-3-2","latitude":"34.63126","longitude":"135.599775"},{"state":"大阪府","shopFlg":false,"name":"炭火キッチン　とりこ","phone_number":"072-993-1011","address":"八尾市東本町3-9-36","latitude":"34.628958","longitude":"135.604794"},{"state":"兵庫県","shopFlg":false,"name":"はなみずき","phone_number":"06-6493-8718","address":"尼崎市潮江1-11-1 ラヴェール尼崎　１Ｆ","latitude":"34.733293","longitude":"135.43369"},{"state":"兵庫県","shopFlg":false,"name":"うなぎ処 きし","phone_number":"072-755-0548","address":"宝塚市雲雀丘2-1-8 フローレンスきし1F","latitude":"34.826838","longitude":"135.401701"},{"state":"兵庫県","shopFlg":false,"name":"大阪産（もん）料理　空　猪名寺本店","phone_number":"06-6498-2915","address":"尼崎市猪名寺2-11-11","latitude":"34.766217","longitude":"135.424606"},{"state":"兵庫県","shopFlg":false,"name":"Beer Cafe Barley","phone_number":"0798-65-6135","address":"西宮市長田町1-15　リバティー２　２Ｆ","latitude":"34.747713","longitude":"135.35904"},{"state":"兵庫県","shopFlg":false,"name":"酒食堂 風屋 －kajiya－","phone_number":"0798-22-7724","address":"西宮市馬場町2-23　馬場町ビル１Ｆ","latitude":"34.73502","longitude":"135.33835"},{"state":"京都府","shopFlg":false,"name":"Man in the Moon","phone_number":"075-672-2522","address":"京都市下京区東塩小路釜殿町31-1 近鉄名店街みやこみち","latitude":"34.984566","longitude":"135.756756"},{"state":"京都府","shopFlg":false,"name":"ハンデルス ベーゲン 北山店","phone_number":"075-708-1166","address":"京都市北区上賀茂岩ヶ垣内町95 スギサキビル1Ｆ東側","latitude":"35.05145","longitude":"135.765993"},{"state":"京都府","shopFlg":false,"name":"京都 坊主BAR","phone_number":"075-252-3160","address":"京都市中京区油小路通蛸薬師下る山田町526番地","latitude":"35.002775","longitude":"135.752212"},{"state":"奈良県","shopFlg":false,"name":"BOTTLE STEP","phone_number":"0744-22-2701","address":"橿原市内膳町1-5-13 1F","latitude":"34.512248","longitude":"135.791893"},{"state":"広島県","shopFlg":false,"name":"ワインとビールのお店 Conami","phone_number":"082-246-9005","address":"広島市中区薬研堀3-6 薬研掘ビル2F","latitude":"34.390796","longitude":"132.465018"},{"state":"鹿児島県","shopFlg":false,"name":"ビアライゼ","phone_number":"099-227-0088","address":"鹿児島市千日町９－１０　平田ビル１階奥","latitude":"31.592335","longitude":"130.550328"},{"state":"沖縄県","shopFlg":false,"name":"ムーンシャイン","phone_number":"099-223-1878","address":"鹿児島市山之口町11-20　池田ビル２Ｆ","latitude":"31.589088","longitude":"130.554184"},{"state":"東京都","shopFlg":false,"name":"T.Y. HARBOR BREWERY","phone_number":"03-5479-4555","address":"東京都品川区東品川 2-1-3","latitude":"35.6226","longitude":"139.747432"},{"state":"千葉県","shopFlg":false,"name":"Beer O’clock ","phone_number":"043-215-8426","address":"千葉県千葉市中央区新田町1-4","latitude":"35.609467","longitude":"140.116493"},{"state":"東京都","shopFlg":false,"name":"August Beer Club \"B\"","phone_number":"03-6721-9830","address":"東京都渋谷区広尾 5-2-25","latitude":"35.650257","longitude":"139.720258"},{"state":"東京都","shopFlg":false,"name":"麦酒倶楽部 HACH","phone_number":"03-5541-1333","address":"東京都中央区八丁堀 1-11-6","latitude":"35.677169","longitude":"139.778144"},{"state":"東京都","shopFlg":true,"name":"LE COLLIER MARUNOUCHI","phone_number":"03-5220-5263","address":"東京都千代田区丸の内1－9－1","latitude":"35.681788","longitude":"139.766761"},{"state":"東京都","shopFlg":false,"name":"Himalaya Table Craft Beer & Spice","phone_number":"03-3525-4110","address":"東京都千代田区内神田 3-5-5","latitude":"35.690759","longitude":"139.769142"},{"state":"東京都","shopFlg":false,"name":"bar cacoi","phone_number":"03-6264-0590","address":"東京都中央区銀座 3-14-8","latitude":"35.670034","longitude":"139.769484"},{"state":"東京都","shopFlg":false,"name":"麦酒屋 るぷりん","phone_number":"03-6228-5728","address":"東京都中央区銀座6-7-7","latitude":"35.670381","longitude":"139.762648"},{"state":"東京都","shopFlg":false,"name":"CRAFT BEER BAR IBREW","phone_number":"03-3281-6221","address":"東京都中央区八重洲2-11-7","latitude":"35.67563","longitude":"139.767395"},{"state":"東京都","shopFlg":false,"name":"SWANLAKE PUB Edo","phone_number":"03-5299-6155","address":"東京都中央区八重洲2-6-6","latitude":"35.677664","longitude":"139.76867"},{"state":"東京都","shopFlg":false,"name":"クラフトビアマーケット 神保町店","phone_number":"03-6272-5652","address":"東京都千代田区神田神保町 2-11-15","latitude":"35.695405","longitude":"139.756784"},{"state":"東京都","shopFlg":false,"name":"THE Jha Bar","phone_number":"03-3252-3258","address":"東京都千代田区神田多町2-5","latitude":"35.693614","longitude":"139.768769"},{"state":"東京都","shopFlg":false,"name":"TOWERS Standing Beer Bar","phone_number":"03-3272-8488","address":"東京都中央区八重洲 2-8-10","latitude":"35.676505","longitude":"139.7682"},{"state":"東京都","shopFlg":false,"name":"GREEN ASIA","phone_number":"03-5786-7795","address":"東京都港区六本木6-10-1","latitude":"35.6604","longitude":"139.729043"},{"state":"東京都","shopFlg":false,"name":"beer public space sansa","phone_number":"03-3583-4200","address":"東京都港区赤坂 2-20-19","latitude":"35.669275","longitude":"139.738586"},{"state":"東京都","shopFlg":false,"name":"クラフトハンズ","phone_number":"03-3568-3723","address":"東京都港区麻布十番1-3-13","latitude":"35.656893","longitude":"139.73557"},{"state":"東京都","shopFlg":false,"name":"アウグスビアクラブ","phone_number":"03-6804-1655","address":"東京都港区西麻布3-2-21","latitude":"35.65854","longitude":"139.727404"},{"state":"東京都","shopFlg":false,"name":"The Hangover Craft Beer & Bar","phone_number":"090-3721-6982","address":"東京都中野区中央1-51-4","latitude":"35.70123","longitude":"139.684526"},{"state":"東京都","shopFlg":false,"name":"エーエス クラシックス ダイナー 六本木ヒルズ店","phone_number":"03-6721-1581","address":"東京都港区六本木6-4-1","latitude":"35.661328","longitude":"139.730107"},{"state":"東京都","shopFlg":true,"name":"鬼頭商店「リデンテ」","phone_number":"03-3991-0118","address":"東京都練馬区豊玉北5-18-10","latitude":"35.737129","longitude":"139.654191"},{"state":"東京都","shopFlg":true,"name":"スーパーみらべる中井店","phone_number":"03-5332-7755","address":"新宿区上落合3-5-16","latitude":"35.712507","longitude":"139.685239"},{"state":"東京都","shopFlg":true,"name":"スーパーみらべる練馬春日町店","phone_number":"03-3577-9030","address":"東京都練馬区春日町6-6-8","latitude":"35.752788","longitude":"139.637225"}]